City,Cloudiness,Country,Date,Humidity,Lat,Lng,Max Temp,Wind Speed
Lebu,17,CL,1579819808,66,-37.62,-73.65,62.294000000000075,9.95465
Yellowknife,40,CA,1579819808,76,62.46,-114.35,-3.9999999999999503,8.0532
Bluff,66,NZ,1579819809,64,-46.6,168.33,73.99400000000009,2.99758
Mar del Plata,40,AR,1579819809,55,-38.0,-57.56,89.00600000000003,17.2249
Aykhal,11,RU,1579819809,65,66.0,111.5,-38.199999999999946,6.711
Blackwater,93,AU,1579819810,60,-23.58,148.88,85.98200000000003,8.67956
Esperance,90,AU,1579819810,87,-33.87,121.9,60.8,10.2902
Atuona,38,PF,1579819811,77,-9.8,-139.03,81.14000000000001,12.79564
Hilo,90,US,1579819811,61,19.73,-155.09,80.6,9.1717
Chui,0,UY,1579819811,82,-33.7,-53.46,69.44000000000003,10.581010000000001
Saint-Philippe,75,RE,1579819812,94,-21.36,55.77,78.80000000000001,3.3555
Port Elizabeth,11,ZA,1579819812,88,-33.92,25.57,64.4,10.2902
Upernavik,37,GL,1579819812,59,72.79,-56.15,-5.8539999999999495,8.32164
Pavlogradka,100,RU,1579819813,97,54.2,73.56,32.378000000000064,14.428650000000001
Dikson,100,RU,1579819813,96,73.51,80.55,-10.263999999999982,12.43772
Hanzhong,100,CN,1579819813,80,33.07,107.03,41.9,3.17654
Tasiilaq,23,GL,1579819538,43,65.61,-37.64,15.8,14.987900000000002
Arlit,24,NE,1579819814,13,18.74,7.39,69.08000000000004,13.77992
Kendari,62,ID,1579819814,88,-3.94,122.5,80.47400000000002,4.004230000000001
Avarua,90,CK,1579819814,88,-21.21,-159.78,82.4,9.1717
Vanimo,100,PG,1579819815,76,-2.67,141.3,81.41000000000008,1.3422
Hong Kong,40,HK,1579819538,88,22.29,114.16,71.00600000000003,6.9347
Baykit,99,RU,1579819815,98,61.67,96.37,-8.481999999999964,1.99093
Magadan,0,RU,1579819704,76,59.57,150.8,-14.745999999999945,11.520550000000002
Punta Arenas,40,CL,1579819816,43,-53.15,-70.92,55.400000000000006,24.1596
Hermanus,50,ZA,1579819816,80,-34.42,19.23,69.99800000000002,11.00604
Umm Kaddadah,0,SD,1579819816,25,13.6,26.69,49.92800000000007,12.3035
Panzhihua,0,CN,1579819817,65,26.59,101.71,34.088000000000044,0.6711
Pacific Grove,1,US,1579819817,59,36.62,-121.92,66.2,6.9347
Darnah,33,LY,1579819817,68,32.77,22.64,60.15200000000008,12.728530000000001
Tra Vinh,100,VN,1579819818,80,9.93,106.35,75.86600000000001,8.34401
Sorland,75,NO,1579819818,64,67.67,12.69,37.4,19.4619
Muroto,75,JP,1579819818,93,33.28,134.15,53.6,9.1717
Belmonte,90,BR,1579819819,83,-15.86,-38.88,77.0,8.0532
Cherskiy,43,RU,1579819584,93,68.75,161.3,-38.39799999999998,3.33313
Bima,40,ID,1579819819,83,-8.47,118.72,78.87200000000004,1.8119700000000003
Kruisfontein,2,ZA,1579819819,88,-34.0,24.73,62.312000000000054,9.48488
Barrow,20,US,1579819820,75,71.29,-156.79,-16.59999999999995,9.1717
Kuala Lipis,82,MY,1579819557,98,4.18,102.05,70.30400000000006,1.2527200000000003
Port Blair,38,IN,1579819623,94,11.67,92.75,75.2,12.9746
Sioux Lookout,75,CA,1579819821,78,50.1,-91.92,15.8,2.237
New Norfolk,40,AU,1579819821,54,-42.78,147.06,62.00600000000003,17.2249
Albany,1,US,1579819545,50,42.6,-73.97,33.998000000000026,0.93954
Novovarshavka,100,RU,1579819822,97,54.17,74.69,32.522000000000034,18.65658
Alofi,75,NU,1579819822,74,-19.06,-169.92,84.2,16.1064
Botwood,90,CA,1579819824,79,49.15,-55.35,26.6,10.2902
Jamestown,75,US,1579819824,40,42.1,-79.24,39.00200000000008,3.3555
Bengkulu,66,ID,1579819746,92,-3.8,102.27,74.57000000000006,3.71342
Norman Wells,90,CA,1579819825,84,65.28,-126.83,-2.199999999999953,4.6977
Vaini,20,TO,1579819825,78,-21.2,-175.2,82.4,6.9347
Fond du Lac,90,US,1579819418,97,43.77,-88.44,33.008,8.0532
Busselton,2,AU,1579819826,90,-33.65,115.33,57.992,1.00665
Krasnoturansk,100,RU,1579819826,85,54.32,91.56,15.8,2.237
Ribeira Grande,69,PT,1579819827,73,38.52,-28.7,53.18600000000007,8.61245
Erenhot,0,CN,1579819827,83,43.65,111.98,9.158000000000005,5.5925
Paamiut,100,GL,1579819827,93,61.99,-49.67,26.510000000000083,35.68015
Puerto Ayora,75,EC,1579819828,62,-0.74,-90.35,84.2,4.6977
Chokurdakh,15,RU,1579819828,93,70.63,147.92,-32.78199999999997,8.38875
Marzuq,17,YE,1579819828,71,14.4,46.47,58.62200000000004,2.08041
Kirakira,0,SB,1579819829,65,-10.45,161.92,85.64000000000001,5.50302
OEstersund,40,SE,1579819829,95,63.18,14.64,35.00600000000003,9.1717
Caldwell,1,US,1579819795,81,43.66,-116.69,53.00600000000003,8.0532
Hamilton,90,US,1579819707,45,39.18,-84.53,46.4,5.301690000000001
Gigmoto,73,PH,1579819830,80,13.78,124.39,80.708,21.34098
Cape Town,0,ZA,1579819653,68,-33.93,18.42,69.99800000000002,6.9347
Mataura,56,NZ,1579819830,58,-46.19,168.86,77.0,2.99758
Korla,0,CN,1579819831,72,41.76,86.15,13.13600000000007,4.048970000000001
Qazvin,0,IR,1579819831,92,36.28,50.0,26.6,2.237
Olinda,75,BR,1579819831,74,-8.01,-34.86,84.2,8.0532
Ushuaia,75,AR,1579819770,71,-54.8,-68.3,50.0,24.1596
Rikitea,0,PF,1579819819,79,-23.12,-134.97,79.30400000000006,17.49334
Kaitangata,99,NZ,1579819832,83,-46.28,169.85,59.70200000000008,12.95223
Ilo,100,PE,1579819832,92,-17.64,-71.34,73.00400000000005,8.56771
Lyngseidet,75,NO,1579819833,92,69.58,20.22,33.8,6.9347
Alberton,1,CA,1579819833,57,46.82,-64.07,26.00600000000003,14.04836
Caravelas,100,BR,1579819833,84,-17.71,-39.25,79.62800000000007,28.6336
Kantunil,40,MX,1579819834,42,20.8,-89.03,82.4,4.6977
Kokopo,1,PG,1579819834,76,-4.35,152.26,82.61600000000001,7.807130000000001
Ponta do Sol,20,PT,1579819835,62,32.67,-17.1,59.0,10.2902
Aloleng,34,PH,1579819835,69,16.13,119.78,73.59800000000003,6.4873
Saskylakh,45,RU,1579819835,95,71.92,114.08,-36.36399999999999,12.61668
Westport,1,US,1579819656,74,41.14,-73.36,41.0,5.301690000000001
Tabas,0,IR,1579819836,87,33.6,56.92,42.8,2.237
Torbay,75,CA,1579819836,79,47.67,-52.73,26.00600000000003,13.8694
Mahebourg,75,MU,1579819837,94,-20.41,57.7,80.00600000000003,2.237
Sao Joao da Barra,100,BR,1579819837,95,-21.64,-41.05,73.85,9.1717
Cabo San Lucas,20,MX,1579819668,60,22.89,-109.91,73.00400000000005,10.2902
Yushala,75,RU,1579819837,85,57.08,64.26,17.6,11.185
Lubango,100,AO,1579819838,86,-14.92,13.49,64.16600000000001,1.47642
Butaritari,31,KI,1579819838,72,3.07,172.79,84.65,11.09552
Longyearbyen,20,SJ,1579819838,71,78.22,15.64,6.800000000000001,41.3845
Lorengau,53,PG,1579819839,69,-2.02,147.27,83.67800000000007,7.538690000000001
Gunnedah,53,AU,1579819839,78,-30.98,150.25,80.6,12.750900000000001
Hasaki,40,JP,1579819839,100,35.73,140.83,42.8,4.6977
Shizuishan,100,CN,1579819839,64,39.23,106.77,22.388000000000044,1.76723
Houma,75,US,1579819760,88,29.6,-90.72,68.0,8.0532
Fairmont,20,US,1579819840,22,39.49,-80.14,48.2,3.17654
Vilhena,40,BR,1579819840,78,-12.74,-60.15,78.80000000000001,6.9347
Pevek,99,RU,1579819841,99,69.7,170.31,-27.99399999999997,5.97279
Arraial do Cabo,90,BR,1579819841,94,-22.97,-42.03,73.4,2.237
Nanortalik,100,GL,1579819841,92,60.14,-45.24,29.390000000000022,16.82224
Port Lincoln,4,AU,1579819842,55,-34.73,135.87,67.87400000000002,11.431070000000002
Maceio,100,BR,1579819747,83,-9.67,-35.74,80.6,11.4087
Olawa,39,PL,1579819843,100,50.95,17.29,28.994000000000074,2.237
Ulladulla,40,AU,1579819844,69,-35.35,150.47,73.4,13.8694
Mana,67,GF,1579819844,88,5.66,-53.78,71.15,3.87001
Narsaq,100,GL,1579819845,57,60.92,-46.05,21.2,17.2249
Kavaratti,13,IN,1579819845,74,10.57,72.64,81.77000000000007,8.25453
Knysna,6,ZA,1579819845,89,-34.04,23.05,59.0,5.8162
Yafran,13,LY,1579819846,38,32.06,12.53,52.57400000000001,14.94316
Pahrump,1,US,1579819846,25,36.21,-115.98,66.2,1.85671
Jacareacanga,100,BR,1579819846,96,-6.22,-57.75,74.80400000000006,2.48307
Grand Gaube,75,MU,1579819847,94,-20.01,57.66,80.00600000000003,2.237
Fortuna,90,US,1579819639,82,40.6,-124.16,60.00800000000001,3.3555
Ano Mera,0,GR,1579819847,57,37.45,25.4,48.992,20.804100000000002
Castro,100,BR,1579819819,98,-24.79,-50.01,59.99000000000002,6.75574
Isangel,20,VU,1579819848,69,-19.55,169.27,82.4,5.8162
Faanui,15,PF,1579819848,74,-16.48,-151.75,82.34600000000006,7.628170000000001
Kapaa,75,US,1579819849,65,22.08,-159.32,78.99800000000002,12.750900000000001
Mujiayingzi,0,CN,1579819849,59,42.12,118.78,11.012000000000057,2.97521
Gabi,55,PH,1579819849,1,7.62,126.09,73.99400000000009,2.79625
Bukachacha,0,RU,1579819850,86,52.98,116.92,-20.14599999999995,1.52116
Berlevag,75,NO,1579819850,79,70.86,29.09,21.2,23.041100000000004
Adrar,100,MR,1579819850,20,20.5,-10.07,68.63000000000005,8.14268
Hokitika,51,NZ,1579819851,78,-42.72,170.97,63.69800000000002,5.212210000000001
Nikolskoye,90,RU,1579819851,96,59.7,30.79,33.008,8.948
Hobart,40,AU,1579819667,54,-42.88,147.33,62.00600000000003,17.2249
Tautira,75,PF,1579819852,70,-17.73,-149.15,86.0,16.1064
Conde,20,BR,1579819852,78,-7.26,-34.91,82.4,9.1717
Kulhudhuffushi,32,MV,1579819852,79,6.62,73.07,82.85,15.166860000000002
Whitehorse,90,CA,1579819852,85,60.72,-135.05,10.994000000000074,4.6977
Bambous Virieux,75,MU,1579819853,94,-20.34,57.76,80.00600000000003,2.237
Samarai,65,PG,1579819853,56,-10.62,150.67,88.84400000000008,1.85671
Forsytheganj,95,BY,1579819854,81,52.63,29.73,31.35200000000008,12.23639
Bosobolo,49,CD,1579819854,26,4.18,19.9,67.01000000000008,2.75151
Hithadhoo,14,MV,1579819854,78,-0.6,73.08,83.66000000000008,12.59431
Tiarei,75,PF,1579819855,70,-17.53,-149.33,86.0,16.1064
Wukari,23,NG,1579819855,12,7.85,9.78,75.29000000000002,9.03748
Adre,0,TD,1579819855,23,13.47,22.2,51.602000000000075,18.14207
Iqaluit,5,CA,1579819856,60,63.75,-68.51,-27.39999999999995,20.804100000000002
Riyadh,0,SA,1579819607,40,24.69,46.72,42.8,7.00181
Changping,35,CN,1579819856,42,40.22,116.22,30.002000000000077,4.474
Urucui,100,BR,1579819856,93,-7.23,-44.56,74.066,4.16082
Saldanha,19,ZA,1579819857,53,-33.01,17.94,73.4,6.9347
Aleksandrov Gay,3,RU,1579819857,94,50.15,48.57,16.556000000000026,8.56771
Boddam,100,GB,1579819858,87,57.47,-1.78,48.00200000000008,8.0532
Garissa,100,KE,1579819858,65,-0.45,39.64,81.24800000000002,10.71523
Yumen,47,CN,1579819858,63,40.28,97.2,13.712000000000057,5.256950000000001
Bredasdorp,79,ZA,1579819859,77,-34.53,20.04,68.0,11.4087
Souillac,75,MU,1579819859,94,-20.52,57.52,80.00600000000003,2.237
Qaanaaq,0,GL,1579819859,60,77.48,-69.36,-11.649999999999949,5.41354
Kankon,0,IN,1579819860,48,15.02,74.02,75.47000000000006,5.83857
Chimore,97,BO,1579819860,77,-16.98,-65.13,78.90800000000002,3.37787
Saint Anthony,90,US,1579819860,98,45.02,-93.22,33.998000000000026,4.56348
Khatanga,100,RU,1579819861,88,71.97,102.5,-23.727999999999966,9.104590000000002
Usinsk,88,RU,1579819861,95,65.99,57.53,5.899999999999999,5.72672
Dunedin,84,NZ,1579819861,86,-45.87,170.5,60.33200000000002,9.283550000000002
Nome,1,US,1579819621,64,64.5,-165.41,-2.199999999999953,4.74244
Northam,90,GB,1579819862,93,51.03,-4.22,44.00600000000003,4.6977
Airai,48,TL,1579819862,67,-8.93,125.41,75.97400000000002,1.67775
Lagoa,74,PT,1579819862,66,39.05,-27.98,56.96600000000001,8.23216
Rocha,0,UY,1579819763,85,-34.48,-54.33,66.18200000000002,11.27448
Yevlax,40,AZ,1579819863,59,40.61,47.15,37.4,14.987900000000002
Saint-Leu,75,RE,1579819863,94,-21.15,55.28,78.80000000000001,3.3555
Saint George,1,US,1579819864,41,37.1,-113.58,59.0,0.85006
East London,61,ZA,1579819864,78,-33.02,27.91,68.25200000000008,12.99697
Ongandjera,100,NA,1579819864,34,-17.88,15.07,78.89000000000001,7.47158
Omsukchan,97,RU,1579819864,99,62.53,155.8,-37.13799999999995,3.91475
Tromso,75,NO,1579819696,89,69.65,18.96,33.8,6.9347
Mweka,100,CD,1579819865,79,-4.85,21.57,71.36600000000001,1.23035
Clyde River,40,CA,1579819865,75,70.47,-68.59,-20.199999999999953,17.2249
Ostrovnoy,100,RU,1579819866,94,68.05,39.51,8.186000000000067,8.83615
Half Moon Bay,1,US,1579819866,71,37.46,-122.43,62.00600000000003,4.63059
Ilulissat,100,GL,1579819866,56,69.22,-51.1,12.2,21.922600000000003
Hwange,100,ZW,1579819867,75,-18.37,26.5,70.55600000000004,2.97521
Mehamn,75,NO,1579819867,79,71.04,27.85,23.0,23.041100000000004
Talcahuano,20,CL,1579819594,77,-36.72,-73.12,64.4,10.2902
Port Alfred,86,ZA,1579819868,90,-33.59,26.89,66.00200000000008,4.004230000000001
Sabha,12,LY,1579819868,29,27.04,14.43,54.266000000000005,7.6058
Daru,92,PG,1579819869,61,-9.08,143.21,88.30400000000006,4.474
Sao Filipe,1,CV,1579819869,74,14.9,-24.5,71.56400000000004,8.76904
Nizwa,7,OM,1579819869,84,22.93,57.53,55.36400000000003,0.26844
Bud,90,US,1579819869,65,39.45,-86.18,44.00600000000003,6.9347
Tuktoyaktuk,75,CA,1579819870,75,69.45,-133.04,-16.59999999999995,4.6977
Antofagasta,5,CL,1579819870,57,-23.65,-70.4,77.0,10.2902
Shahr-e Kord,5,IR,1579819870,66,32.33,50.86,15.8,2.237
Xichang,85,CN,1579819871,84,27.9,102.26,26.132000000000016,4.94377
Inuvik,90,CA,1579819871,76,68.35,-133.72,-11.199999999999953,7.247880000000001
Sinnamary,51,GF,1579819871,74,5.38,-52.95,78.674,13.46674
Valdivia,0,CL,1579819872,47,-39.81,-73.25,75.2,9.1717
Port Hardy,75,CA,1579819577,87,50.7,-127.42,50.0,8.0532
Zeya,0,RU,1579819872,81,53.75,127.27,-22.035999999999966,7.762390000000001
Acapulco de Juarez,75,MX,1579819688,70,16.86,-99.89,84.2,11.4087
Mossamedes,84,AO,1579819873,78,-15.2,12.15,73.85,9.373030000000002
Syedove,13,UA,1579819873,72,47.08,38.16,32.66600000000001,20.15537
Marawi,26,PH,1579819873,94,8.0,124.29,73.99400000000009,5.99516
Zhangjiakou,0,CN,1579819874,67,40.81,114.88,8.599999999999998,1.2527200000000003
Panjakent,75,TJ,1579819874,57,39.5,67.61,48.2,6.9347
Leh,0,IN,1579819875,51,34.17,77.58,-18.38199999999997,4.63059
De-Kastri,100,RU,1579819875,94,51.47,140.78,4.316000000000006,10.245460000000001
Polovinnoye,93,RU,1579819875,93,54.79,65.99,12.758000000000003,6.643890000000001
Tanabi,90,BR,1579819875,94,-20.63,-49.65,69.80000000000001,9.1717
Tahoua,9,NE,1579819876,8,14.89,5.27,73.4,11.4087
Issenye,100,TZ,1579819876,69,-2.0,34.33,65.30000000000001,4.31741
Oshawa,20,CA,1579819829,80,43.9,-78.85,33.998000000000026,4.6977
Benicarlo,0,ES,1579819877,54,40.42,0.43,33.008,1.49879
General Roca,1,AR,1579819877,7,-39.03,-67.58,98.60000000000001,12.750900000000001
Vardo,90,NO,1579819877,92,70.37,31.11,23.0,12.750900000000001
General Pico,39,AR,1579819878,23,-35.66,-63.76,88.7,11.252110000000002
George Town,20,MY,1579819604,88,5.41,100.34,80.6,3.3555
Tarbagatay,1,RU,1579819878,73,51.48,107.36,-29.199999999999953,4.183190000000001
Arua,59,UG,1579819879,29,3.02,30.91,68.27000000000007,7.20314
Carnarvon,0,AU,1579819879,69,-24.87,113.63,75.2,10.2902
Faya,40,SA,1579819879,87,18.39,42.45,51.8,16.1064
Bethel,75,US,1579819880,47,41.37,-73.41,39.00200000000008,4.6977
Tocopilla,81,CL,1579819626,81,-22.09,-70.2,60.728000000000065,4.45163
Oum Hadjer,0,TD,1579819884,17,13.3,19.7,59.39600000000005,15.659
Thompson,20,CA,1579819885,72,55.74,-97.86,10.399999999999999,5.8162
Tuatapere,82,NZ,1579819804,64,-46.13,167.68,73.99400000000009,2.99758
Sechura,0,PE,1579819886,87,-5.56,-80.82,72.66200000000006,14.18258
Taoudenni,100,ML,1579819886,22,22.68,-3.98,68.61200000000005,7.85187
Sao Raimundo Nonato,100,BR,1579819626,97,-9.02,-42.7,70.66400000000004,1.3422
Hay River,90,CA,1579819887,84,60.82,-115.8,6.800000000000001,13.8694
Lompoc,1,US,1579819889,37,34.64,-120.46,73.4,3.3555
Kamina,96,CD,1579819889,96,-8.74,24.99,65.15600000000003,2.88573
Shelburne,90,CA,1579819889,74,44.08,-80.2,33.998000000000026,9.1717
Canary Islands,20,ES,1579819890,63,28.0,-15.5,60.8,5.8162
Puerto Penasco,0,MX,1579819890,48,31.32,-113.53,71.99600000000005,5.010880000000001
Constitucion,99,CL,1579819890,93,-35.33,-72.42,58.71200000000006,4.98851
Lata,40,PT,1579819849,93,40.16,-8.33,48.992,8.0532
Eucaliptus,100,BO,1579819891,68,-17.58,-67.52,52.79000000000002,12.639050000000001
Salamiyah,94,SY,1579819891,96,35.01,37.05,37.38200000000002,22.43711
Saint-Pierre,75,RE,1579819891,94,-21.34,55.48,78.80000000000001,3.3555
Seryshevo,0,RU,1579819892,83,51.09,128.38,-15.51999999999996,7.22551
Ostrow Mazowiecka,95,PL,1579819892,54,52.8,21.9,37.99400000000007,11.87847
Linjiang,0,CN,1579819892,85,41.81,126.91,0.3560000000000265,1.96856
Kamenka,94,RU,1579819893,83,51.32,42.77,17.00600000000003,4.004230000000001
Ialibu,91,PG,1579819893,80,-6.28,143.99,70.05200000000008,2.55018
Nalut,5,LY,1579819893,31,30.33,10.85,52.070000000000064,11.654770000000001
Amahai,17,ID,1579819893,73,-3.33,128.92,81.5,9.03748
Funadhoo,60,MV,1579819894,75,6.15,73.27,83.69600000000005,24.1596
Kodiak,1,US,1579819894,48,57.79,-152.41,19.4,26.396600000000003
Guerrero Negro,0,MX,1579819894,48,27.98,-114.06,69.20600000000003,11.296850000000001
Brae,100,GB,1579819895,81,60.4,-1.35,44.6,20.804100000000002
Kinsale,90,IE,1579819656,93,51.71,-8.53,44.00600000000003,1.1185
Hanmer Springs,6,NZ,1579819895,25,-42.52,172.82,81.42800000000007,5.32406
Kumul,74,CN,1579819826,69,42.8,93.45,9.302000000000078,0.42503
Tiksi,4,RU,1579819896,83,71.69,128.87,-29.37999999999994,4.58585
Merauke,6,ID,1579819896,69,-8.47,140.33,87.22400000000002,3.01995
Tilichiki,100,RU,1579819897,90,60.47,166.1,-15.951999999999977,12.191650000000001
Saint-Joseph,75,RE,1579819897,94,-21.37,55.62,78.80000000000001,3.3555
Neyvo-Shaytanskiy,100,RU,1579819897,92,57.73,61.25,12.649999999999999,6.75574
Hanna,80,CA,1579819898,86,51.63,-111.9,19.99400000000007,11.00604
Itaituba,100,BR,1579819865,88,-4.28,-55.98,77.75600000000003,3.87001
Port Moresby,20,PG,1579819898,79,-9.44,147.18,84.2,4.6977
Dongdu,100,CN,1579819898,74,35.85,117.7,33.35,4.40689
Vitoria da Conquista,100,BR,1579819899,98,-14.87,-40.84,65.89400000000008,5.391170000000001
Barra Patuca,39,HN,1579819900,69,15.8,-84.28,75.90200000000007,9.86517
Yanam,2,IN,1579819900,91,16.73,82.22,64.25600000000003,2.6844
Namatanai,33,PG,1579819901,75,-3.67,152.43,83.82200000000003,5.525390000000001
Cidreira,29,BR,1579819901,74,-30.18,-50.21,73.68800000000005,22.12393
The Pas,1,CA,1579819901,78,53.83,-101.25,15.8,10.2902
Taicheng,96,CN,1579819902,84,38.73,113.23,21.2,2.14752
Petropavlovsk-Kamchatsky,0,RU,1579819902,58,53.05,158.65,-2.199999999999953,6.711
Aksarka,100,RU,1579819902,95,66.56,67.8,12.524000000000012,5.61487
Eureka,90,US,1579819716,82,40.8,-124.16,60.00800000000001,3.3555
Suntar,10,RU,1579819903,94,62.14,117.63,-42.98799999999994,2.237
Coutances,90,FR,1579819903,87,49.05,-1.43,42.8,11.4087
Aurillac,100,FR,1579819903,76,44.92,2.45,48.992,14.987900000000002
Tikrit,0,IQ,1579819904,57,34.61,43.68,46.90400000000005,12.482460000000001
Guane,53,CU,1579819904,61,22.2,-84.09,69.65600000000003,2.55018
Carbonia,63,IT,1579819905,87,39.17,8.52,59.0,20.804100000000002
Provideniya,89,RU,1579819905,70,64.38,-173.3,-2.199999999999953,2.237
Sumbe,96,AO,1579819905,87,-11.21,13.84,77.558,1.8119700000000003
Atambua,54,ID,1579819746,72,-9.11,124.89,81.21200000000006,1.63301
De Aar,0,ZA,1579819906,49,-30.65,24.01,69.22400000000002,16.39721
Sola,0,VU,1579819906,66,-13.88,167.55,82.20200000000008,8.74667
Dar es Salaam,100,TZ,1579819908,87,-6.82,39.27,80.15,6.77811
Sitka,90,US,1579819908,86,57.05,-135.33,41.0,17.2249
Moose Factory,90,CA,1579819908,78,51.26,-80.61,12.2,5.8162
Leshukonskoye,55,RU,1579819908,97,64.9,45.76,1.3999999999999986,3.8029
Geraldton,0,AU,1579819909,93,-28.77,114.6,60.8,5.8162
Podporozhye,100,RU,1579819909,95,60.91,34.17,27.194000000000074,10.021760000000002
Port Antonio,40,JM,1579819909,69,18.18,-76.46,78.80000000000001,6.9347
Orlik,89,RU,1579819910,88,52.52,99.83,-8.841999999999949,4.0266
Doha,75,QA,1579819659,67,25.29,51.53,60.8,10.2902
Tonj,79,SS,1579819910,16,7.27,28.68,64.47200000000004,6.62152
Anadyr,75,RU,1579819723,82,64.75,177.48,-14.007999999999953,17.896
Nabire,9,ID,1579819746,76,-3.37,135.48,82.43600000000006,0.49214
Poum,39,NC,1579819911,78,-20.23,164.02,79.01600000000002,20.3567
Puerto Narino,75,CO,1579819912,100,-3.77,-70.38,78.80000000000001,2.237
Ust-Nera,100,RU,1579819912,99,64.57,143.2,-39.333999999999946,0.85006
Mezen,61,RU,1579819912,94,65.85,44.24,7.646000000000047,2.08041
Ailigandi,70,PA,1579819913,95,9.23,-78.02,72.82400000000001,3.51209
Amarante do Maranhao,100,BR,1579819913,96,-5.57,-46.74,74.03000000000004,3.37787
Verkhnevilyuysk,47,RU,1579819913,98,63.45,120.32,-47.39799999999998,1.43168
Antalaha,100,MG,1579819913,81,-14.9,50.28,80.24000000000002,4.49637
Sao Miguel do Araguaia,96,BR,1579819914,98,-13.28,-50.16,72.86000000000008,8.12031
Dzhebariki-Khaya,15,RU,1579819914,99,62.22,135.8,-40.50399999999995,1.07376
Can,0,TR,1579819914,59,40.03,27.05,37.99400000000007,9.1717
Deesa,14,IN,1579819915,43,24.25,72.17,55.20200000000008,5.301690000000001
Manzhouli,0,CN,1579819915,76,49.6,117.43,-10.101999999999975,3.6463099999999997
Port-Gentil,40,GA,1579819745,94,-0.72,8.78,82.4,2.237
Novorudnyy,98,RU,1579819916,92,51.5,58.19,26.6,22.37
Yining,98,CN,1579819916,98,29.04,114.56,44.76200000000006,1.96856
Kavieng,55,PG,1579819917,69,-2.57,150.8,83.60600000000002,8.70193
Plettenberg Bay,0,ZA,1579819917,82,-34.05,23.37,65.066,3.89238
Miandrivazo,88,MG,1579819917,93,-19.52,45.47,74.33600000000007,4.11608
Mahajanga,40,MG,1579819918,88,-15.72,46.32,78.80000000000001,13.8694
Kauhajoki,100,FI,1579819918,82,62.43,22.18,41.0,17.2249
Thai Binh,90,VN,1579819918,88,20.45,106.33,71.6,2.237
Pekalongan,100,ID,1579819918,82,-6.89,109.68,79.10600000000002,2.28174
Pindwara,14,IN,1579819919,55,24.8,73.07,47.06600000000001,2.72914
Barranca,33,PE,1579819919,90,-10.75,-77.77,74.30000000000001,1.09613
Bograd,100,RU,1579819919,85,54.23,90.83,15.8,2.237
Pitimbu,20,BR,1579819920,78,-7.47,-34.81,82.4,9.1717
Lokosovo,99,RU,1579819920,93,61.13,74.82,22.622000000000035,11.27448
Masuda,75,JP,1579819920,87,34.67,131.85,51.8,4.6977
Pangnirtung,20,CA,1579819920,67,66.15,-65.71,-23.799999999999947,3.3555
Calama,75,CL,1579819921,59,-22.47,-68.93,64.4,20.804100000000002
Hobyo,96,SO,1579819921,77,5.35,48.53,79.28600000000007,17.73941
Harper,42,LR,1579819921,91,4.38,-7.72,78.27800000000008,2.9081
Motygino,100,RU,1579819922,95,58.18,94.76,12.722000000000037,4.65296
Ganzhou,94,CN,1579819922,96,28.82,115.43,46.022000000000034,3.46735
Belaya Gora,77,RU,1579819816,84,68.53,146.42,-31.88199999999997,2.5278099999999997
Coolum Beach,38,AU,1579819923,80,-26.53,153.1,87.00800000000001,4.45163
Hualmay,93,PE,1579819923,78,-11.1,-77.61,71.58200000000002,2.41596
Coyhaique,75,CL,1579819923,41,-45.58,-72.07,60.8,10.2902
Richards Bay,83,ZA,1579819924,76,-28.78,32.04,75.52400000000002,5.63724
Melendugno,0,IT,1579819924,87,40.27,18.34,50.0,8.0532
Luderitz,0,NA,1579819924,82,-26.65,15.16,68.0,2.237
Eatonton,90,US,1579819925,71,33.33,-83.39,51.998000000000026,7.06892
Haimen,75,CN,1579819926,88,23.19,116.61,66.2,6.711
Ust'-Omchug,98,RU,1579819926,99,61.15,149.63,-34.95999999999998,3.46735
Santa Rosa,75,PH,1579819927,74,14.31,121.11,78.80000000000001,1.83434
Mozarlandia,100,BR,1579819666,93,-14.74,-50.57,73.958,10.64812
Martapura,40,ID,1579819927,83,-3.42,114.85,80.6,5.8162
Talara,0,PE,1579819927,100,-4.58,-81.27,62.6,11.4087
Contamana,100,PE,1579819928,97,-7.33,-75.02,75.18200000000002,1.27509
Bougouni,100,ML,1579819928,14,11.42,-7.48,83.71400000000003,7.09129
Haines Junction,100,CA,1579819928,97,60.75,-137.51,0.3740000000000627,4.89903
Dingle,28,PH,1579819881,88,11.0,122.67,77.19800000000004,11.07315
Jardim,61,BR,1579819921,95,-21.48,-56.14,70.86200000000005,5.3688
Ripky,66,UA,1579819929,84,51.8,31.08,30.416000000000007,7.583430000000001
Biak,35,ID,1579819930,71,-0.91,122.88,80.90600000000003,3.60157
Saint-Francois,95,FR,1579819930,86,46.42,3.91,30.2,3.3555
Palu,18,ID,1579819930,78,-0.89,119.87,72.93200000000002,2.48307
Asau,0,RO,1579819930,79,46.43,26.4,28.004000000000055,3.3555
Road Town,40,VG,1579819747,69,18.42,-64.62,82.4,5.8162
Batagay-Alyta,10,RU,1579819931,69,67.8,130.41,-35.01399999999998,1.76723
Grindavik,90,IS,1579819931,66,63.84,-22.43,32.0,42.503
Rexburg,90,US,1579819932,86,43.83,-111.79,33.8,1.92382
Shingu,75,JP,1579819932,93,33.73,135.98,51.8,2.237
Victoria Point,75,AU,1579819932,74,-27.58,153.3,87.99800000000002,17.2249
Atocha,98,BO,1579819932,78,-20.93,-66.23,51.56600000000001,8.76904
Bertoua,2,CM,1579819933,25,4.58,13.68,61.44800000000002,2.48307
Chikwawa,100,MW,1579819933,96,-16.03,34.8,66.2,4.51874
Goreloye,28,RU,1579819933,91,52.94,41.5,11.966000000000008,6.73337
Thaton,65,MM,1579819934,71,16.92,97.37,62.150000000000006,1.8119700000000003
Dutse,33,NG,1579819934,16,11.76,9.34,63.806000000000026,10.62575
Roald,95,NO,1579819934,75,62.58,6.13,42.8,23.041100000000004
Kalmunai,44,LK,1579819935,76,7.42,81.82,81.59000000000003,16.48669
Flin Flon,20,CA,1579819935,85,54.77,-101.86,15.8,4.6977
Cumberland,1,US,1579819680,66,35.05,-78.87,48.2,4.6977
Kindu,100,CD,1579819936,77,-2.95,25.95,73.88600000000008,1.09613
Gemeente Hoogeveen,90,NL,1579819936,100,52.68,6.58,37.99400000000007,4.6977
Vega de Alatorre,83,MX,1579819937,78,20.03,-96.63,73.27400000000002,6.06227
Portland,90,US,1579819662,93,45.52,-122.68,55.99400000000007,9.1717
Kaabong,98,UG,1579819937,36,3.48,34.15,66.03800000000004,3.93712
Buala,0,SB,1579819938,63,-8.14,159.59,86.14400000000008,6.2636
Rafai,89,CF,1579819938,23,4.95,23.92,67.37000000000006,6.688630000000001
Durant,40,US,1579819776,47,33.99,-96.37,55.400000000000006,6.9347
Luganville,40,VU,1579819938,78,-15.53,167.17,82.4,2.237
Mancio Lima,90,BR,1579819939,100,-7.61,-72.9,75.2,8.0532
Palmer,90,US,1579819939,55,42.16,-72.33,37.4,2.84099
Puerto Escondido,51,MX,1579819939,89,15.85,-97.07,70.97000000000006,0.40266
Chapais,90,CA,1579819798,85,49.78,-74.85,14.0,11.4087
Ust'-Uda,98,RU,1579819940,94,54.17,103.03,-2.649999999999949,4.07134
San Rafael,1,AR,1579819940,27,-34.62,-68.33,89.24000000000002,13.489110000000002
Semirom,12,IR,1579819940,96,31.42,51.57,7.070000000000061,4.60822
Kismayo,100,SO,1579819941,88,-0.36,42.55,80.63600000000008,16.95646
Severnyy,75,RU,1579819941,85,50.68,36.55,23.0,8.948
Nurobod,100,UZ,1579819942,26,40.91,69.8,46.4,13.8694
Kieta,43,PG,1579819942,70,-6.22,155.63,84.11000000000008,4.67533
Banda Aceh,34,ID,1579819942,90,5.56,95.32,72.82400000000001,5.99516
Tezu,100,IN,1579819943,72,27.92,96.17,50.75600000000003,0.42503
Russell,90,US,1579819896,81,32.35,-85.2,51.998000000000026,5.8162
Gao,96,ML,1579819943,13,16.64,1.64,72.19400000000007,10.871820000000001
Kungurtug,92,RU,1579819943,81,50.6,97.52,-0.14799999999997482,3.8029
Deputatsky,61,RU,1579819944,97,69.3,139.9,-32.331999999999965,2.5054400000000006
Ahipara,0,NZ,1579819944,71,-35.17,173.17,84.00200000000008,1.99093
Severo-Kuril'sk,82,RU,1579819945,82,50.68,156.12,17.02400000000001,8.29927
Lavrentiya,30,RU,1579819945,85,65.58,-171.0,-14.619999999999962,1.07376
Enfield,20,AU,1579819946,49,-34.85,138.6,69.99800000000002,12.750900000000001
Maragogi,98,BR,1579819946,79,-9.01,-35.22,82.04000000000002,14.13784
Coos Bay,90,US,1579819946,87,43.37,-124.22,57.2,4.6977
Coyah,94,GN,1579819947,63,9.75,-13.42,79.358,6.330710000000001
Hervey Bay,75,AU,1579819947,88,-25.3,152.85,82.99400000000009,6.9347
La Ronge,90,CA,1579819947,85,55.1,-105.28,21.2,5.8162
Oussouye,94,SN,1579819948,47,12.48,-16.55,78.80000000000001,4.6977
Djambala,100,CG,1579819948,68,-2.54,14.75,73.43600000000006,5.1451
San Cristobal,40,VE,1579819659,62,7.77,-72.22,84.2,6.9347
Grants,1,US,1579819949,34,35.15,-107.85,50.0,10.2902
Nizhniy Tsasuchey,31,RU,1579819949,77,50.52,115.13,-6.411999999999956,0.15659000000000003
Piacabucu,98,BR,1579819949,84,-10.41,-36.43,79.97000000000006,10.223090000000001
Djibouti,20,DJ,1579819950,94,11.5,42.5,75.2,5.5925
Dandong,0,CN,1579819950,42,40.13,124.39,21.596000000000046,14.13784
Biloela,77,AU,1579819950,61,-24.42,150.5,85.98200000000003,11.78899
Zhifang,90,CN,1579819950,87,30.35,114.32,44.6,8.948
Talnakh,75,RU,1579819951,77,69.49,88.4,1.3999999999999986,20.133000000000003
Vao,100,NC,1579819951,73,-22.67,167.48,77.82800000000006,15.54715
Coquimbo,38,CL,1579819952,60,-29.95,-71.34,71.6,13.8694
Teeli,85,RU,1579819952,68,51.03,90.23,0.2300000000000395,2.5054400000000006
Vanavara,100,RU,1579819952,99,60.34,102.28,-10.137999999999941,4.67533
Port Hedland,14,AU,1579819953,94,-20.32,118.57,80.6,4.6977
Redcliffe,75,AU,1579819953,74,-27.23,153.1,89.00600000000003,17.2249
Naze,75,JP,1579819953,93,28.37,129.48,66.2,4.6977
Batemans Bay,50,AU,1579819956,64,-35.72,150.18,69.99800000000002,1.99093
Rio Gallegos,75,AR,1579819941,47,-51.62,-69.22,55.400000000000006,31.0943
Emporio,0,GR,1579819956,50,40.48,21.55,28.4,3.3555
Stephenville Crossing,90,CA,1579819956,86,48.5,-58.43,30.2,20.804100000000002
Prince Rupert,90,CA,1579819931,93,54.32,-130.32,44.6,10.2902
Goundam,91,ML,1579819957,11,16.41,-3.67,75.75800000000001,8.366380000000001
Puerto del Rosario,20,ES,1579819915,72,28.5,-13.86,59.0,4.6977
Thinadhoo,51,MV,1579819958,79,0.53,72.93,83.89400000000008,16.17351
Sagaing,92,MM,1579819958,87,21.88,95.98,57.2,2.37122
Kortkeros,75,RU,1579819958,85,61.81,51.58,21.2,8.948
Mehtar Lam,20,AF,1579819959,48,34.67,70.21,42.8,12.95223
Mthatha,77,ZA,1579819959,97,-31.59,28.78,57.30800000000001,4.74244
Pinega,86,RU,1579819959,95,64.7,43.39,9.446000000000048,4.56348
Belize,74,BZ,1579819960,54,17.25,-88.75,84.2,4.6977
Avera,90,US,1579819960,57,33.19,-82.53,53.6,6.9347
Sibu,75,MY,1579819961,100,2.3,111.82,77.0,0.64873
Amarpatan,34,IN,1579819961,66,24.32,80.98,48.524000000000015,4.45163
Salem,2,IN,1579819743,90,11.65,78.17,66.95600000000003,4.89903
Yulara,72,AU,1579819962,36,-25.24,130.99,77.0,16.1064
Hirado,75,JP,1579819962,82,33.36,129.55,57.2,11.4087
Kozhva,94,RU,1579819962,96,65.11,57.05,6.566000000000006,2.66203
Baoro,52,CF,1579819963,22,5.67,15.97,61.66400000000003,4.63059
Tomatlan,100,MX,1579819963,65,19.93,-105.25,74.71400000000003,5.301690000000001
Kovdor,99,RU,1579819851,96,67.57,30.48,10.616000000000007,4.31741
Los Llanos de Aridane,59,ES,1579819964,63,28.66,-17.92,60.8,5.8162
Tynda,6,RU,1579819964,96,55.17,124.72,-30.081999999999965,2.41596
Paddhari,5,IN,1579819964,52,22.43,70.6,58.91000000000008,8.67956
Semey,100,KZ,1579819965,76,50.41,80.23,30.05600000000003,16.88935
Kununurra,87,AU,1579819965,83,-15.77,128.73,80.6,8.0532
Mareeba,90,AU,1579819965,79,-17.0,145.43,84.99199999999999,1.1185
Hailar,0,CN,1579819966,92,49.2,119.7,-14.997999999999976,10.424420000000001
Altos,75,BR,1579819966,88,-5.04,-42.46,75.2,9.1717
Mocuba,47,MZ,1579819966,96,-16.84,36.99,70.86200000000005,2.55018
Balikpapan,20,ID,1579819967,88,-1.27,116.83,77.0,3.3555
Ilhabela,100,BR,1579819764,78,-23.78,-45.36,72.5,0.6263600000000001
Kamiiso,75,JP,1579819968,86,41.82,140.65,26.6,5.8162
San Luis,0,AR,1579819968,26,-33.3,-66.34,88.57400000000001,9.194070000000002
Delvine,20,AL,1579819968,100,39.95,20.1,51.998000000000026,3.73579
Dwarka,21,IN,1579819968,57,22.24,68.97,69.42200000000004,17.76178
San Quintin,0,MX,1579819916,72,30.48,-115.95,61.556000000000026,7.98609
Tamandare,98,BR,1579819895,79,-8.76,-35.1,82.04000000000002,14.13784
Labuhan,2,ID,1579819873,86,-6.88,112.21,78.76400000000004,3.44498
Codrington,88,AU,1579819970,73,-38.27,141.97,62.024000000000015,18.544729999999998
Marsaxlokk,75,MT,1579819970,76,35.84,14.54,55.400000000000006,11.4087
Paraguacu Paulista,100,BR,1579819923,95,-22.41,-50.58,67.49600000000005,11.8561
Sehithwa,88,BW,1579819971,67,-20.47,22.72,75.34400000000008,3.24365
Karakol,0,KG,1579819971,34,42.49,78.39,13.099999999999998,6.53204
Flinders,40,AU,1579819971,69,-34.58,150.86,73.99400000000009,13.8694
Viedma,22,AR,1579819972,66,-40.81,-63.0,73.45400000000006,11.833730000000001
Laguna,75,US,1579819832,82,38.42,-121.42,59.0,2.93047
Visnes,90,NO,1579819972,93,59.36,5.22,46.4,17.2249
Lakes Entrance,0,AU,1579819973,43,-37.88,147.98,71.00600000000003,2.99758
Kochubey,99,RU,1579819973,73,44.39,46.58,30.794000000000075,16.7775
Clyde,90,US,1579819973,60,41.3,-82.98,41.0,3.3555
Encruzilhada do Sul,5,BR,1579819974,86,-30.54,-52.52,65.174,8.948
Hailey,40,US,1579819974,74,43.52,-114.32,37.004000000000055,5.8162
Wau,78,SS,1579819974,16,7.7,28.0,64.32800000000006,7.270250000000001
Makakilo City,1,US,1579819718,61,21.35,-158.09,78.80000000000001,9.1717
Atar,100,MR,1579819975,20,20.52,-13.05,69.458,6.73337
Sisimiut,100,GL,1579819975,71,66.94,-53.67,15.458000000000002,22.280520000000003
Urubicha,90,BO,1579819976,50,-15.38,-62.95,80.56400000000004,1.83434
Itoman,75,JP,1579819976,88,26.12,127.67,66.2,3.3555
Correderos,20,HN,1579819976,61,15.42,-88.45,80.6,13.8694
Marsh Harbour,0,BS,1579819976,73,26.54,-77.06,71.36600000000001,19.26057
Mount Gambier,90,AU,1579819977,87,-37.83,140.77,59.0,10.2902
Kudirkos Naumiestis,100,LT,1579819977,90,54.77,22.86,40.87400000000001,16.03929
Napasar,92,IN,1579819977,49,27.97,73.55,52.88000000000004,5.167470000000001
Husavik,90,IS,1579819978,65,66.04,-17.34,32.0,48.3192
Laas,5,IT,1579819978,79,46.62,10.7,33.998000000000026,4.27267
Aksu,24,CN,1579819978,82,41.12,80.26,18.752000000000077,0.71584
Mahon,20,ES,1579819978,93,39.89,4.27,50.0,6.9347
West Wendover,1,US,1579819979,61,40.74,-114.07,46.4,4.6977
Moorhead,90,US,1579819979,86,46.87,-96.77,28.4,5.8162
Alvaraes,20,BR,1579819979,70,-3.22,-64.8,87.80000000000001,3.3555
Isla Mujeres,75,MX,1579819980,64,21.23,-86.73,73.4,5.8162
Turbiv,42,UA,1579819980,88,49.35,28.72,28.58000000000004,10.64812
Qaqortoq,100,GL,1579819981,57,60.72,-46.03,21.2,17.2249
Seoul,1,KR,1579819877,92,37.57,126.98,32.0,3.75816
Bainbridge Island,90,US,1579819982,93,47.63,-122.52,53.99600000000005,12.750900000000001
Formosa do Rio Preto,100,BR,1579819982,99,-11.05,-45.19,67.85600000000002,2.55018
Rawson,87,AR,1579819873,52,-43.3,-65.1,70.46600000000001,8.79141
Gaza,75,PS,1579819983,81,31.5,34.47,53.6,14.987900000000002
Naron,100,ES,1579819983,93,43.52,-8.15,51.00800000000001,4.6977
Provincie Utrecht,90,NL,1579819840,93,52.0,5.25,39.992,3.3555
Cuorgne,0,IT,1579819984,74,45.39,7.65,37.99400000000007,2.237
Manaus,75,BR,1579819984,83,-3.1,-60.02,84.2,1.1185
Nkowakowa,40,ZA,1579819984,87,-23.89,30.29,64.99400000000009,13.8694
Dapaong,12,TG,1579819985,11,10.86,0.2,75.72200000000004,13.06408
Khuzhir,100,RU,1579819985,82,53.19,107.34,14.936000000000067,3.10943
Rabo de Peixe,40,PT,1579819985,87,37.8,-25.58,53.6,5.8162
Qingdao,80,CN,1579819895,80,36.1,120.37,33.8,13.422
Jilin,0,CN,1579819986,92,43.0,126.0,-5.169999999999959,1.18561
Beringovskiy,100,RU,1579819986,96,63.05,179.32,2.408000000000005,9.57436
San Nicolas,20,PH,1579819987,100,18.17,120.6,66.2,5.8162
Keuruu,100,FI,1579819987,79,62.27,24.7,35.99600000000005,9.1717
Katsuura,75,JP,1579819987,81,35.13,140.3,50.0,6.9347
West Helena,90,US,1579819988,100,34.55,-90.64,44.6,4.56348
Reinosa,100,ES,1579819988,93,43.0,-4.14,48.00200000000008,7.89661
Abaete,100,BR,1579819702,93,-19.16,-45.45,70.17800000000007,9.88754
Punta Alta,17,AR,1579819921,33,-38.88,-62.07,90.24800000000002,13.489110000000002
Armenis,41,RO,1579819989,45,45.2,22.32,26.888000000000044,2.5278099999999997
Escarcega,0,MX,1579819989,51,18.61,-90.75,77.0,3.24365
Bodaybo,100,RU,1579819990,99,57.85,114.19,-12.87399999999996,0.93954
Emirdag,87,TR,1579819990,92,39.02,31.15,19.508000000000003,6.08464
Dubuque,90,US,1579819874,98,42.48,-90.87,32.0,8.0532
Denpasar,20,ID,1579819922,88,-8.65,115.22,78.80000000000001,2.237
Manggar,50,ID,1579819940,78,-2.88,108.27,82.77800000000008,12.840380000000001
Pospelikha,100,RU,1579819991,91,51.95,81.77,29.282000000000018,27.515100000000004
Novosheshminsk,73,RU,1579819992,95,55.07,51.23,11.354000000000052,7.89661
Raichur,11,IN,1579819992,74,16.2,77.37,66.308,5.122730000000001
Tsogni,100,GA,1579819992,77,-2.79,10.1,83.24600000000005,6.554410000000001
Griffith,90,US,1579819992,100,41.53,-87.42,35.6,6.88996
Ocampo,100,MX,1579819980,56,21.65,-101.5,56.3,9.8428
Okrika,10,NG,1579819993,87,4.74,7.08,79.64600000000004,5.435910000000001
Nueva Florida,75,PE,1579819993,100,-6.95,-76.61,62.6,3.3555
Port Macquarie,96,AU,1579819994,78,-31.43,152.92,82.99400000000009,12.012690000000001
Yar-Sale,100,RU,1579819994,95,66.83,70.83,10.562000000000058,8.67956
Arman,0,RU,1579819994,86,59.7,150.17,-12.981999999999964,7.314990000000001
Goose Creek,75,US,1579819995,76,32.98,-80.03,55.400000000000006,4.51874
San Policarpo,66,PH,1579819995,86,12.18,125.51,80.24000000000002,17.0012
Tual,10,ID,1579819995,78,-5.67,132.75,83.44400000000007,15.345820000000002
Ancud,1,CL,1579819995,46,-41.87,-73.82,69.80000000000001,10.2902
Castelo do Piaui,100,BR,1579819997,90,-5.32,-41.55,74.30000000000001,3.46735
Buchanan,40,LR,1579819997,94,5.88,-10.05,78.80000000000001,3.42261
Krasnosel'kup,100,RU,1579819882,92,65.7,82.47,12.236000000000068,18.09733
Warrington,90,GB,1579819924,100,53.39,-2.58,44.99600000000005,6.9347
Etah,84,IN,1579819998,60,27.63,78.67,45.77000000000006,8.54534
Jaguarao,0,BR,1579819998,83,-32.57,-53.38,68.59400000000008,11.185
Kidal,67,ML,1579819998,14,18.44,1.41,71.52800000000008,10.424420000000001
Pimentel,75,PE,1579819999,29,-6.84,-79.93,66.2,10.2902
Masunga,24,BW,1579819999,55,-20.62,27.45,69.674,11.699510000000002
Lancaster,1,US,1579819705,41,40.25,-76.25,39.992,2.41596
Matara,0,LK,1579819819,87,5.95,80.54,73.4,7.538690000000001
Mount Isa,90,AU,1579819737,83,-20.73,139.5,80.6,8.0532
Sinegorye,100,RU,1579820001,99,62.08,150.48,-25.761999999999958,2.10278
Mpanda,97,TZ,1579820001,91,-6.37,31.04,66.68600000000006,1.96856
Alakurtti,100,RU,1579820001,89,66.97,30.35,10.994000000000074,4.004230000000001
Dawei,41,MM,1579820001,75,14.08,98.2,77.70200000000008,5.122730000000001
Muros,95,ES,1579820002,87,42.78,-9.06,51.998000000000026,4.6977
Itarema,95,BR,1579819916,90,-2.92,-39.92,77.77400000000002,4.38452
Tutoia,100,BR,1579820002,93,-2.76,-42.27,76.4600000000001,3.44498
Yibin,96,CN,1579820003,74,28.77,104.62,50.45,3.66868
Kiruna,71,SE,1579820003,74,67.86,20.23,30.2,13.8694
Markova,0,UA,1579820003,80,48.68,24.41,21.632000000000016,9.08222
Toora-Khem,100,RU,1579820003,89,52.47,96.11,1.814000000000032,2.59492
Sokoni,100,TZ,1579820004,84,-6.43,39.55,81.69800000000004,7.314990000000001
Klaksvik,52,FO,1579819896,69,62.23,-6.59,37.4,21.922600000000003
San Pedro de Uraba,20,CO,1579820004,74,8.28,-76.38,82.4,13.8694
Vestmannaeyjar,100,IS,1579820005,68,63.44,-20.27,34.30400000000005,39.10276
Valleyview,67,CA,1579820005,90,55.07,-117.29,29.282000000000018,3.17654
Chaoyang,0,CN,1579820005,63,41.57,120.46,10.130000000000042,1.99093
Bousso,0,TD,1579820005,12,10.48,16.71,66.95600000000003,11.54292
