City,Cloudiness,Country,Date,Humidity,Lat,Lng,Max Temp,Wind Speed
Hilo,1,US,1579806687,60,19.73,-155.09,73.00400000000005,6.9347
Pevek,96,RU,1579806102,99,69.7,170.31,-28.533999999999942,1.65538
Yeppoon,60,AU,1579806688,83,-23.13,150.73,80.6,8.0532
Sur,2,OM,1579806688,75,22.57,59.53,68.18000000000004,5.99516
Auki,16,SB,1579806607,64,-8.77,160.7,84.18200000000002,8.925630000000002
New Norfolk,29,AU,1579806665,66,-42.78,147.06,55.99400000000007,11.4087
Arraial do Cabo,75,BR,1579806689,83,-22.97,-42.03,77.0,3.3555
Cape Town,0,ZA,1579806075,53,-33.93,18.42,75.2,11.4087
Boende,34,CD,1579806690,33,-0.22,20.87,80.65400000000005,1.49879
Punta Arenas,75,CL,1579806551,54,-53.15,-70.92,59.0,27.515100000000004
Mandalgovi,0,MN,1579806690,75,45.76,106.27,2.9480000000000253,9.08222
Avarua,88,CK,1579806690,88,-21.21,-159.78,80.6,6.9347
Khatanga,100,RU,1579806408,85,71.97,102.5,-26.733999999999945,9.57436
Itarema,69,BR,1579806691,61,-2.92,-39.92,87.90800000000002,12.70616
Slave Lake,40,CA,1579806691,92,55.28,-114.77,15.8,13.8694
Rikitea,0,PF,1579806691,78,-23.12,-134.97,78.94400000000007,18.768430000000002
Preobrazheniye,12,RU,1579806692,56,42.9,133.91,13.441999999999997,6.4873
Henties Bay,0,NA,1579806672,88,-22.12,14.28,68.0,1.99093
Upernavik,63,GL,1579806692,70,72.79,-56.15,-6.357999999999954,8.16505
Longyearbyen,20,SJ,1579806693,65,78.22,15.64,6.800000000000001,40.266000000000005
Lata,40,PT,1579806693,93,40.16,-8.33,51.00800000000001,3.3555
Faya,40,SA,1579806693,81,18.39,42.45,55.400000000000006,6.9347
Lebu,13,CL,1579806693,40,-37.62,-73.65,75.75800000000001,7.314990000000001
Ushuaia,40,AR,1579806667,66,-54.8,-68.3,55.400000000000006,8.0532
Kodiak,90,US,1579806694,48,57.79,-152.41,21.2,19.4619
Bluff,53,NZ,1579806694,95,-46.6,168.33,53.99600000000005,2.99758
Varzea da Palma,100,BR,1579806695,97,-17.6,-44.73,70.01600000000002,5.41354
Aklavik,90,CA,1579805903,75,68.22,-135.01,-20.199999999999953,4.6977
Crimmitschau,0,DE,1579806404,83,50.82,12.38,32.0,2.237
Farah,96,AF,1579806696,55,32.5,62.5,50.792,14.540500000000002
Coquimbo,99,CL,1579806696,56,-29.95,-71.34,73.4,14.987900000000002
Saint Anthony,1,US,1579806696,99,45.02,-93.22,35.00600000000003,6.9347
Busselton,0,AU,1579806673,54,-33.65,115.33,59.0,9.68621
Kavieng,83,PG,1579806697,74,-2.57,150.8,82.72400000000002,11.02841
Kapaa,20,US,1579806456,93,22.08,-159.32,69.80000000000001,5.8162
Richards Bay,5,ZA,1579806697,68,-28.78,32.04,78.49400000000009,10.64812
Faanui,52,PF,1579806444,78,-16.48,-151.75,81.82400000000001,11.87847
Vaini,20,TO,1579806577,100,-21.2,-175.2,73.4,3.3555
Khanbari,58,NP,1579806698,80,27.37,87.2,29.3,0.69347
Dharchula,28,IN,1579806698,31,29.85,80.53,23.41400000000003,14.00362
Mataura,34,NZ,1579806577,95,-46.19,168.86,53.99600000000005,2.99758
The Pas,1,CA,1579806028,92,53.83,-101.25,10.399999999999999,8.0532
Sitka,90,US,1579806453,70,57.05,-135.33,44.6,14.987900000000002
Grindavik,90,IS,1579806699,68,63.84,-22.43,30.2,44.9637
Barrow,1,US,1579806700,75,71.29,-156.79,-14.799999999999947,8.0532
Buraidah,0,SA,1579806627,32,26.33,43.98,50.0,5.8162
Rocha,0,UY,1579806550,34,-34.48,-54.33,85.78399999999999,13.60096
Rincon,90,US,1579806112,66,32.3,-81.24,53.99600000000005,5.8162
Bredasdorp,25,ZA,1579806671,72,-34.53,20.04,68.0,14.987900000000002
Bumba,50,CD,1579806701,31,2.18,22.47,78.62000000000006,2.05804
Manche,90,FR,1579806702,93,49.0,-1.17,35.6,6.9347
Lixouri,20,GR,1579806702,100,38.2,20.43,48.2,10.044130000000001
Pasni,100,PK,1579806702,63,25.26,63.47,66.12800000000007,3.98186
Nyurba,18,RU,1579806702,95,63.28,118.33,-46.01199999999996,2.81862
Isangel,48,VU,1579806703,93,-19.55,169.27,66.2,3.3555
Tiksi,35,RU,1579806670,82,71.69,128.87,-28.695999999999948,3.75816
Yellowknife,75,CA,1579806703,83,62.46,-114.35,-7.005999999999979,4.6977
Dikson,100,RU,1579806703,97,73.51,80.55,-10.731999999999964,13.26541
Thompson,75,CA,1579806582,84,55.74,-97.86,1.3999999999999986,6.9347
Hithadhoo,48,MV,1579806704,79,-0.6,73.08,84.63200000000002,15.905070000000002
Eenhana,20,NA,1579806704,33,-17.47,16.33,89.6,3.3555
Fairbanks,90,US,1579806704,69,64.84,-147.72,-9.003999999999955,1.1185
Hobart,15,AU,1579806485,66,-42.88,147.33,55.99400000000007,11.4087
Andenes,75,NO,1579806705,78,69.31,16.12,35.6,13.8694
Lompoc,1,US,1579806535,55,34.64,-120.46,68.0,4.6977
Atuona,36,PF,1579806706,78,-9.8,-139.03,81.01400000000004,15.74848
Torbay,40,CA,1579806706,73,47.67,-52.73,24.998000000000026,23.041100000000004
Nushki,89,PK,1579806706,45,29.55,66.02,52.46600000000001,5.10036
Deputatsky,62,RU,1579806707,96,69.3,139.9,-30.45999999999998,2.66203
Albany,1,US,1579806673,54,42.6,-73.97,46.004000000000055,4.6977
Pierre,90,US,1579806707,92,44.37,-100.35,28.004000000000055,13.8694
Krasnosel'kup,99,RU,1579806707,93,65.7,82.47,7.448000000000025,16.17351
Tasiilaq,20,GL,1579806578,51,65.61,-37.64,14.0,23.041100000000004
Butaritari,34,KI,1579806708,69,3.07,172.79,84.434,7.13603
Samarai,15,PG,1579806708,86,-10.62,150.67,76.06400000000004,2.97521
Castro,100,BR,1579806666,95,-24.79,-50.01,62.45600000000003,3.98186
Olafsvik,100,IS,1579806709,61,64.89,-23.71,29.82200000000004,49.30348
Luderitz,0,NA,1579806709,68,-26.65,15.16,71.6,8.0532
Tuktoyaktuk,20,CA,1579806709,82,69.45,-133.04,-16.59999999999995,10.2902
Yerofey Pavlovich,0,RU,1579806709,82,53.97,121.97,-23.15199999999998,3.48972
Zemio,97,CF,1579806710,25,5.03,25.14,72.69800000000004,4.048970000000001
Geraldton,0,AU,1579806452,82,-28.77,114.6,64.4,8.0532
Jumla,27,NP,1579806116,61,29.27,82.18,17.636000000000067,6.241230000000001
Provideniya,33,RU,1579806710,80,64.38,-173.3,-11.379999999999939,1.49879
Pahrump,1,US,1579806490,52,36.21,-115.98,55.400000000000006,1.14087
Methven,32,NZ,1579806711,76,-43.63,171.65,62.99600000000005,5.10036
Saint-Philippe,100,RE,1579806673,88,-21.36,55.77,80.6,8.0532
Srednekolymsk,100,RU,1579806711,97,67.45,153.68,-33.375999999999934,5.79383
Luganville,40,VU,1579806712,94,-15.53,167.17,71.6,2.237
Zhigansk,72,RU,1579806712,99,66.77,123.37,-31.26999999999996,5.3688
Caceres,100,ES,1579806461,91,39.52,-6.37,46.99400000000007,5.99516
Ribeira Grande,40,PT,1579806713,67,38.52,-28.7,57.2,5.8162
Saskylakh,10,RU,1579806713,93,71.92,114.08,-35.66199999999996,11.22974
Skibbereen,75,IE,1579806713,93,51.55,-9.27,44.6,3.3555
Amahai,90,ID,1579806713,73,-3.33,128.92,81.53600000000007,11.81136
Ponta do Sol,40,PT,1579806714,63,32.67,-17.1,60.8,6.9347
Senneterre,90,CA,1579806714,92,48.38,-77.23,30.2,2.237
Port Alfred,1,ZA,1579806715,86,-33.59,26.89,66.99199999999999,5.010880000000001
Yangi Marg`ilon,90,UZ,1579806715,92,40.43,71.72,26.6,2.237
Smithers,75,CA,1579806697,100,54.78,-127.17,30.2,2.237
Mar del Plata,40,AR,1579806716,43,-38.0,-57.56,98.00600000000003,16.1064
George Town,20,MY,1579806648,83,5.41,100.34,80.6,3.3555
Clyde River,40,CA,1579806629,75,70.47,-68.59,-20.199999999999953,18.3434
Airai,36,TL,1579806716,90,-8.93,125.41,66.74000000000002,3.95949
Lianran,0,CN,1579806717,68,24.92,102.48,42.8,8.948
Ampanihy,52,MG,1579806717,73,-24.7,44.75,72.37400000000002,16.68802
Whitehorse,90,CA,1579806717,84,60.72,-135.05,10.004000000000051,6.9347
Amazar,0,RU,1579806717,81,53.86,120.88,-23.511999999999958,2.4607
Cap Malheureux,75,MU,1579806718,88,-19.98,57.61,80.6,2.237
Hermanus,0,ZA,1579806578,75,-34.42,19.23,73.99400000000009,8.99274
Eyl,20,SO,1579806718,84,7.98,49.82,78.42200000000004,22.347630000000002
Alice Springs,46,AU,1579806718,28,-23.7,133.88,80.6,10.2902
Port Moresby,28,PG,1579806719,76,-9.44,147.18,81.86000000000008,4.29504
Severo-Kuril'sk,85,RU,1579806719,75,50.68,156.12,13.298000000000023,9.44014
Boguchany,91,RU,1579806719,99,58.38,97.45,-5.367999999999988,3.24365
Edson,1,CA,1579806719,85,53.58,-116.44,17.6,2.237
Wanning,43,CN,1579806720,83,18.8,110.4,70.91600000000001,7.09129
Qaanaaq,99,GL,1579806720,95,77.48,-69.36,-9.921999999999933,4.63059
Uyar,100,RU,1579806720,86,55.81,94.32,20.516000000000005,6.53204
Carnarvon,0,AU,1579806721,78,-24.87,113.63,77.0,17.2249
Bukama,100,CD,1579806721,94,-9.2,25.85,72.24800000000002,1.72249
Kulhudhuffushi,5,MV,1579806721,79,6.62,73.07,83.67800000000007,20.46855
Vila Velha,90,BR,1579806721,78,-20.33,-40.29,80.99600000000005,17.2249
Mariehamn,100,AX,1579806722,84,60.1,19.93,37.4,11.4087
Gobabis,65,NA,1579806722,22,-22.45,18.97,84.75800000000001,4.87666
Plettenberg Bay,58,ZA,1579806722,83,-34.05,23.37,67.64000000000001,16.1064
Pemangkat,100,ID,1579806722,90,1.17,108.97,75.95600000000003,7.762390000000001
Fort Nelson,90,CA,1579806723,92,58.81,-122.7,5.0,5.8162
Ancud,75,CL,1579806723,56,-41.87,-73.82,69.80000000000001,10.2902
Lorengau,2,PG,1579806723,73,-2.02,147.27,83.066,10.155980000000001
Chokurdakh,62,RU,1579806724,93,70.63,147.92,-32.43999999999997,8.45586
Aquiraz,75,BR,1579806724,66,-3.9,-38.39,87.80000000000001,14.987900000000002
Ilulissat,40,GL,1579806724,60,69.22,-51.1,8.599999999999998,20.804100000000002
North Battleford,90,CA,1579806724,100,52.78,-108.28,23.0,3.3555
Arlit,78,NE,1579806725,10,18.74,7.39,74.71400000000003,4.40689
Gao,88,ML,1579806725,9,16.64,1.64,82.27400000000002,11.050780000000001
Kingman,1,US,1579806725,57,35.19,-114.05,66.00200000000008,5.8162
Hamilton,90,US,1579806725,36,39.18,-84.53,48.00200000000008,4.6977
Sokoni,100,TZ,1579806726,83,-6.43,39.55,82.27400000000002,6.97944
Ayagoz,100,KZ,1579806726,77,47.97,80.44,24.008000000000003,9.35066
Kyra,16,RU,1579806726,82,49.58,111.98,-11.811999999999955,2.70677
Dubbo,90,AU,1579806726,53,-32.25,148.62,77.0,5.8162
Narsaq,90,GL,1579806727,57,60.92,-46.05,17.6,19.4619
Viedma,4,AR,1579806727,10,-40.81,-63.0,102.2,18.231550000000002
Artesia,1,US,1579806727,52,33.87,-118.08,71.00600000000003,0.6711
Hobyo,30,SO,1579806728,77,5.35,48.53,79.53800000000004,20.91595
Panjab,100,AF,1579806728,70,34.39,67.02,11.641999999999996,4.65296
Esperance,75,AU,1579806663,87,-33.87,121.9,59.0,4.6977
Jamestown,1,US,1579806699,44,42.1,-79.24,41.0,4.6977
Porto-Novo,20,BJ,1579806729,83,6.5,2.6,84.2,6.9347
Mpika,100,ZM,1579806729,94,-11.83,31.45,63.55400000000006,1.58827
Mahebourg,75,MU,1579806729,88,-20.41,57.7,80.6,2.237
Ushtobe,87,KZ,1579806730,66,45.25,77.98,22.49600000000005,5.10036
Uvinza,98,TZ,1579806730,94,-5.1,30.39,67.15400000000005,0.73821
Yulara,2,AU,1579806730,36,-25.24,130.99,77.0,9.1717
Mangrol,59,IN,1579806731,58,21.12,70.12,74.15600000000003,12.21402
Shimoda,75,JP,1579806731,100,34.67,138.95,51.8,2.237
Nome,90,US,1579806533,65,64.5,-165.41,3.1999999999999993,10.2902
Santa Cruz de la Sierra,75,BO,1579806731,41,-17.8,-63.17,95.0,11.4087
Hervey Bay,75,AU,1579806732,88,-25.3,152.85,78.99800000000002,5.8162
Sept-Iles,90,CA,1579806616,79,50.2,-66.38,30.991999999999997,6.9347
Nikolskoye,75,RU,1579806732,92,59.7,30.79,32.0,11.185
San Rafael,0,AR,1579806732,20,-34.62,-68.33,95.88200000000002,15.614260000000002
Kruisfontein,32,ZA,1579806589,80,-34.0,24.73,65.49800000000002,14.495760000000002
Verkhnevilyuysk,34,RU,1579806733,96,63.45,120.32,-45.57999999999994,2.48307
Hurghada,0,EG,1579806734,41,27.26,33.81,59.0,10.2902
Sarankhola,90,BD,1579806734,67,22.31,89.79,65.984,1.5659
Touros,40,BR,1579806734,66,-5.2,-35.46,87.80000000000001,18.3434
Guerrero Negro,0,MX,1579806735,47,27.98,-114.06,66.57800000000006,5.480650000000001
Eresos,20,GR,1579806735,65,39.17,25.93,44.6,11.4087
Moerai,100,PF,1579806735,83,-22.43,-151.33,80.31200000000007,13.287780000000001
Lekoni,91,GA,1579806735,45,-1.58,14.26,84.29000000000002,5.301690000000001
Sidi Ali,0,DZ,1579806736,49,36.1,0.42,54.608000000000004,4.96614
Singleton,40,AU,1579806736,65,-32.57,151.18,84.99199999999999,10.2902
Nanortalik,100,GL,1579806737,80,60.14,-45.24,24.116000000000007,9.90991
Dhaka,43,BD,1579806511,82,23.71,90.41,59.0,3.15417
Basco,31,PH,1579806737,80,20.45,121.97,76.08200000000002,16.28536
Okhotsk,95,RU,1579806737,89,59.38,143.3,-17.76999999999996,5.68198
Nosy Varika,100,MG,1579806738,93,-20.58,48.53,71.54600000000005,8.008460000000001
Keta,10,GH,1579806739,83,5.92,0.99,84.2,5.8162
Muros,22,ES,1579806740,81,42.78,-9.06,51.00800000000001,2.237
Neiafu,40,TO,1579806740,94,-18.65,-173.98,69.80000000000001,9.66384
Wenling,100,CN,1579806740,95,28.37,121.36,51.998000000000026,15.79322
Bethel,1,US,1579806741,26,41.37,-73.41,44.99600000000005,4.6977
Abha,40,SA,1579806612,81,18.22,42.51,55.400000000000006,6.9347
Hong Kong,20,HK,1579806503,88,22.29,114.16,71.99600000000005,9.1717
Rovaniemi,90,FI,1579806741,92,66.5,25.72,21.2,12.750900000000001
Nioki,50,CD,1579806742,46,-2.72,17.68,81.842,2.81862
Beringovskiy,100,RU,1579806741,94,63.05,179.32,5.288000000000043,7.6058
Fortuna,90,US,1579806602,76,40.6,-124.16,60.998000000000026,3.3555
Paamiut,100,GL,1579806743,69,61.99,-49.67,25.304000000000052,35.72489
Marsh Harbour,4,BS,1579806572,71,26.54,-77.06,71.63600000000008,22.772660000000002
Cidreira,54,BR,1579806743,77,-30.18,-50.21,73.49000000000002,17.873630000000002
Tocopilla,87,CL,1579806743,51,-22.09,-70.2,71.816,11.36396
Wau,78,SS,1579806744,15,7.7,28.0,71.42000000000007,4.63059
Penalva,86,BR,1579806744,84,-3.29,-45.17,84.34400000000008,4.49637
Novoil'insk,73,RU,1579806744,92,51.68,108.71,-5.7099999999999795,3.66868
Bathsheba,75,BB,1579806668,88,13.22,-59.52,78.80000000000001,18.3434
San Cristobal,40,VE,1579806623,62,7.77,-72.22,86.0,5.8162
Puerto Ayora,75,EC,1579806601,62,-0.74,-90.35,84.2,9.1717
Namatanai,93,PG,1579806745,79,-3.67,152.43,82.14800000000002,6.688630000000001
Bueno Brandao,100,BR,1579806745,96,-22.44,-46.35,64.54400000000007,2.48307
Ugoofaaru,11,MV,1579806746,78,5.67,73.0,83.30000000000001,22.1463
Mount Isa,75,AU,1579806746,88,-20.73,139.5,78.80000000000001,6.9347
Berlevag,100,NO,1579806746,73,70.86,29.09,19.4,24.1596
Colquechaca,91,BO,1579806747,65,-18.67,-66.02,59.12600000000009,6.82285
Orlik,100,RU,1579806747,88,52.52,99.83,-9.65199999999998,3.71342
Barcelos,40,PT,1579806747,71,41.54,-8.62,51.8,10.2902
Sosnovo-Ozerskoye,14,RU,1579806748,95,52.52,111.54,-16.32999999999994,5.525390000000001
Manicore,75,BR,1579806748,66,-5.81,-61.3,89.6,3.3555
Menongue,90,AO,1579806748,90,-14.66,17.69,66.092,6.129380000000001
Pacific Grove,1,US,1579806476,82,36.62,-121.92,60.00800000000001,4.6977
Tachov,0,CZ,1579806749,92,49.8,12.63,30.2,2.237
Guilin,90,CN,1579806749,87,25.28,110.29,50.0,6.711
Talaya,100,RU,1579806749,99,61.38,152.75,-32.601999999999975,0.02237
Sorland,40,NO,1579806750,69,67.67,12.69,39.2,31.0943
Staryy Nadym,100,RU,1579806750,94,65.61,72.68,13.028000000000066,13.77992
Kigali,75,RW,1579806531,100,-1.95,30.06,68.0,2.237
Beitbridge,4,ZW,1579806751,35,-22.22,30.0,86.792,14.898420000000002
Konispol,0,AL,1579806751,81,39.66,20.18,50.0,2.237
College,90,US,1579806751,69,64.86,-147.8,-7.599999999999952,2.19226
Cherskiy,92,RU,1579806495,99,68.75,161.3,-38.01999999999997,4.0266
Sijunjung,13,ID,1579806752,94,-0.69,100.95,71.54600000000005,0.26844
Talnakh,75,RU,1579806752,77,69.49,88.4,3.1999999999999993,17.896
Rome,1,US,1579806208,47,43.21,-75.46,41.0,4.6977
Coutances,90,FR,1579806753,87,49.05,-1.43,42.998000000000026,11.4087
Port Elizabeth,2,ZA,1579806727,77,-33.92,25.57,68.0,14.987900000000002
Sylacauga,90,US,1579806523,93,33.17,-86.25,44.00600000000003,3.3555
Caravelas,100,BR,1579806753,80,-17.71,-39.25,79.50200000000008,25.52417
Piterka,17,RU,1579806754,91,50.68,47.45,19.328000000000067,11.4087
Bulgan,1,MN,1579806754,71,48.81,103.53,-0.2739999999999654,3.69105
Avanuorri,75,NO,1579806754,79,71.0,24.66,26.6,25.278100000000002
Havre-Saint-Pierre,90,CA,1579806755,92,50.23,-63.6,28.4,16.1064
Sparti,0,GR,1579806481,87,37.07,22.43,53.99600000000005,3.3555
Great Falls,1,US,1579806755,49,47.5,-111.3,48.992,20.804100000000002
Senanga,99,ZM,1579806756,59,-16.12,23.27,75.34400000000008,5.86094
Petukhovo,83,RU,1579806756,92,55.07,67.9,16.268000000000086,10.155980000000001
Guangzhou,0,CN,1579806515,82,23.12,113.25,71.99600000000005,4.474
Norman Wells,75,CA,1579806673,77,65.28,-126.83,-2.199999999999953,1.38694
Oga,0,IT,1579806757,73,46.46,10.35,33.008,3.3555
Robertsport,100,LR,1579806757,79,6.75,-11.37,82.31000000000009,13.60096
Seredka,100,RU,1579806757,84,58.16,28.19,32.0,6.711
Kidal,100,ML,1579806757,10,18.44,1.41,79.84400000000008,9.70858
Jizan,40,SA,1579806758,61,17.33,42.67,78.80000000000001,13.8694
San Patricio,75,MX,1579806758,66,19.22,-104.7,84.2,5.8162
Antofagasta,40,CL,1579806758,51,-23.65,-70.4,80.6,13.8694
Worland,90,US,1579806759,43,44.02,-107.96,37.004000000000055,4.004230000000001
Tuensang,4,IN,1579806759,91,26.28,94.83,42.674000000000014,2.48307
Kuching,75,MY,1579806759,88,1.55,110.33,78.80000000000001,2.237
Ponte de Sor,53,PT,1579806760,92,39.25,-8.01,50.0,1.00665
Minot,90,US,1579806714,85,48.23,-101.3,24.8,4.6977
Chitapur,0,IN,1579806760,43,17.12,77.08,71.51000000000008,4.42926
East London,75,ZA,1579806668,88,-33.02,27.91,68.0,5.8162
Inhambane,13,MZ,1579806761,67,-23.86,35.38,77.63000000000005,13.019340000000001
Forsytheganj,34,BY,1579806761,80,52.63,29.73,30.29000000000002,10.334940000000001
Yurimaguas,75,PE,1579806762,94,-5.9,-76.08,73.4,3.3555
Tazovsky,100,RU,1579806762,93,67.47,78.7,3.3440000000000722,15.077380000000002
Bushehr,40,IR,1579806762,54,28.97,50.84,59.0,11.4087
Bubaque,80,GW,1579806762,51,11.28,-15.83,80.2760000000001,13.399630000000002
Korhogo,70,CI,1579806763,9,9.45,-5.63,93.72200000000004,5.256950000000001
Taltal,31,CL,1579806763,66,-25.4,-70.48,71.52800000000008,6.30834
Nemuro,100,JP,1579806623,85,43.32,145.57,28.598000000000024,10.245460000000001
Vestmanna,100,FO,1579806729,69,62.16,-7.17,39.2,23.041100000000004
Bekovo,76,RU,1579806764,96,52.47,43.71,15.746000000000048,8.276900000000001
Chui,14,UY,1579806726,53,-33.7,-53.46,80.29400000000007,13.287780000000001
Zyryanka,70,RU,1579806764,99,65.75,150.85,-35.625999999999934,1.40931
Cascais,75,PT,1579806765,81,38.7,-9.42,53.00600000000003,5.8162
La Peca,89,PE,1579806765,38,-5.61,-78.44,89.49199999999999,1.40931
Marawi,40,PH,1579806765,90,8.0,124.29,75.99199999999999,1.99093
Arrondissement de Saint-Gaudens,86,FR,1579806765,86,43.08,0.67,51.998000000000026,3.3555
Saint George,1,US,1579806766,61,37.1,-113.58,51.998000000000026,1.72249
Chimbote,99,PE,1579806766,63,-9.09,-78.58,79.16000000000008,7.47158
Vila Franca do Campo,40,PT,1579806667,67,37.72,-25.43,57.2,5.8162
Alyangula,40,AU,1579806767,83,-13.85,136.42,84.2,9.1717
Port Blair,46,IN,1579806767,80,11.67,92.75,79.97000000000006,14.629980000000002
Rawson,39,AR,1579806564,45,-43.3,-65.1,73.04000000000002,10.7376
Pozo Colorado,99,PY,1579806767,55,-23.49,-58.8,84.39800000000002,10.84945
Pochinok,13,RU,1579806768,62,54.41,32.44,26.72600000000009,10.62575
Iqaluit,20,CA,1579806768,60,63.75,-68.51,-25.00599999999998,24.1596
Ondangwa,0,NA,1579806768,51,-17.92,15.95,84.2,3.3555
Katsuura,75,JP,1579806768,87,35.13,140.3,50.0,8.0532
Mawlamyine,93,MM,1579806769,72,16.49,97.63,75.25400000000005,1.90145
Biltine,0,TD,1579806769,14,14.53,20.92,63.69800000000002,11.699510000000002
Kaitangata,4,NZ,1579806759,88,-46.28,169.85,56.156000000000034,7.538690000000001
Whitley Bay,75,GB,1579806770,87,55.04,-1.45,46.4,12.750900000000001
Bengkulu,100,ID,1579806770,94,-3.8,102.27,74.04800000000003,2.99758
Usinsk,93,RU,1579806770,96,65.99,57.53,6.908000000000005,3.31076
Husavik,90,IS,1579806771,50,66.04,-17.34,30.2,44.9637
Daru,25,PG,1579806771,85,-9.08,143.21,77.82800000000006,1.92382
Semnan,0,IR,1579806564,70,35.57,53.4,33.98000000000004,1.7896
Vanavara,17,RU,1579806771,98,60.34,102.28,-14.02599999999994,4.56348
Praia,2,CV,1579806772,61,14.92,-23.51,78.80000000000001,18.3434
Tual,26,ID,1579806732,74,-5.67,132.75,82.97600000000008,12.482460000000001
Pangnirtung,5,CA,1579806773,55,66.15,-65.71,-20.199999999999953,3.3555
Ashland,1,US,1579806773,51,40.82,-82.27,44.00600000000003,9.57436
Acajutla,0,SV,1579806773,62,13.59,-89.83,82.99400000000009,1.99093
Moyale,100,KE,1579806773,31,3.52,39.06,82.47200000000004,9.57436
Moroni,90,KM,1579806774,88,-11.7,43.26,80.6,12.750900000000001
Altay,82,CN,1579806774,75,47.87,88.12,8.47400000000001,4.54111
Iquique,97,CL,1579806644,51,-20.22,-70.14,84.2,11.4087
Veraval,55,IN,1579806592,37,20.9,70.37,66.95600000000003,8.276900000000001
Tuatapere,44,NZ,1579806775,95,-46.13,167.68,53.99600000000005,2.99758
Ostrovnoy,98,RU,1579806775,95,68.05,39.51,13.13600000000007,9.95465
Ritchie,100,ZA,1579806775,41,-29.04,24.6,78.80000000000001,9.1717
Sao Joao da Barra,75,BR,1579806775,69,-21.64,-41.05,80.6,13.8694
Wolgast,53,DE,1579806776,89,54.05,13.77,39.992,12.61668
Cockburn Town,40,TC,1579806776,61,21.46,-71.14,77.0,14.987900000000002
Beloha,53,MG,1579806776,77,-25.17,45.05,70.64600000000004,11.36396
Bilma,15,NE,1579806776,14,18.69,12.92,67.51400000000004,8.85852
Lethem,50,GY,1579806777,31,3.38,-59.8,97.39400000000008,10.75997
Minab,75,IR,1579806777,88,27.15,57.08,66.2,4.6977
Helong,0,CN,1579806777,92,42.54,129.0,-1.3899999999999721,5.122730000000001
Betsiamites,90,CA,1579806777,92,48.94,-68.65,33.8,23.041100000000004
San Quintin,0,MX,1579806778,74,30.48,-115.95,60.728000000000065,3.98186
Cayenne,20,GF,1579806778,55,4.93,-52.33,86.0,11.4087
Voyvozh,99,RU,1579806779,95,62.89,54.96,18.032000000000018,5.88331
Ayan,96,RU,1579806779,65,56.45,138.17,-14.817999999999984,3.3555
Kavaratti,0,IN,1579806499,68,10.57,72.64,82.92200000000004,3.10943
Klaksvik,98,FO,1579806779,69,62.23,-6.59,39.2,23.041100000000004
Shaoyang,100,CN,1579806780,94,27.23,111.45,43.34000000000002,6.82285
Kasur,52,PK,1579806780,71,31.12,74.45,53.6,3.3555
Iranshahr,63,IR,1579806780,59,27.2,60.68,64.4,6.9347
Tiznit,47,MA,1579806780,63,29.58,-9.5,54.5,4.40689
Mount Gambier,75,AU,1579806763,87,-37.83,140.77,53.6,9.1717
Teya,73,RU,1579806781,96,60.38,92.63,-2.253999999999955,4.45163
Charyshskoye,100,RU,1579806781,83,51.4,83.56,22.568000000000083,11.49818
North Platte,20,US,1579806781,52,41.12,-100.77,42.8,24.1596
Tukrah,21,LY,1579806782,74,32.53,20.58,55.49000000000002,11.185
Goderich,100,CA,1579806782,89,43.75,-81.72,39.992,1.99093
Maniitsoq,100,GL,1579806782,78,65.42,-52.9,18.37400000000001,28.16383
Mirny,1,RU,1579806782,71,62.54,113.96,-45.39999999999995,2.237
Coari,94,BR,1579806783,61,-4.08,-63.14,88.79000000000002,4.138450000000001
Mitchell,90,US,1579806783,85,43.71,-98.03,26.00600000000003,14.987900000000002
Vila,20,PT,1579806783,70,42.03,-8.16,51.00800000000001,4.6977
Kilindoni,97,TZ,1579806784,82,-7.91,39.67,82.70600000000003,10.021760000000002
Talcahuano,90,CL,1579806784,72,-36.72,-73.12,66.2,6.9347
West Bay,20,KY,1579806784,57,19.37,-81.42,75.2,9.1717
Port Hedland,0,AU,1579806509,88,-20.32,118.57,80.6,8.0532
Cerna,36,RO,1579806785,55,45.08,28.32,33.8,12.750900000000001
Mae Ramat,24,TH,1579806785,79,16.98,98.52,78.99800000000002,0.73821
Sola,3,VU,1579806785,65,-13.88,167.55,81.32000000000006,11.31922
Lyubech,47,UA,1579806786,83,51.7,30.66,30.02000000000006,10.91656
Meghri,35,AM,1579806786,70,38.9,46.24,18.86000000000008,7.583430000000001
Nouakchott,100,MR,1579806786,41,18.09,-15.98,77.0,6.9347
Straengnaes,71,SE,1579806786,86,59.38,17.03,44.00600000000003,5.8162
Kiambu,75,KE,1579806787,82,-1.17,36.83,68.0,4.6977
Vasil'sursk,89,RU,1579806787,93,56.13,46.01,18.968000000000085,9.12696
Dawson Creek,75,CA,1579806787,73,55.77,-120.24,26.6,10.2902
Lumberton,1,US,1579806600,62,34.62,-79.01,53.99600000000005,9.1717
Uttaradit,45,TH,1579806788,58,17.67,100.5,80.00600000000003,2.34885
Leshukonskoye,100,RU,1579806788,95,64.9,45.76,7.862000000000055,6.97944
Gorshechnoye,76,RU,1579806789,87,51.52,38.04,21.091999999999995,11.8561
Dinar,20,TR,1579806789,50,38.06,30.17,33.8,17.2249
Cabo San Lucas,5,MX,1579806620,73,22.89,-109.91,73.00400000000005,9.1717
Byron Bay,90,AU,1579806592,88,-28.65,153.62,78.99800000000002,14.987900000000002
Dingle,15,PH,1579806790,89,11.0,122.67,73.59800000000003,11.67714
Mossamedes,52,AO,1579806790,76,-15.2,12.15,74.58800000000005,10.133610000000001
Along,72,IN,1579806790,96,28.17,94.77,43.952000000000076,4.11608
Vallenar,34,CL,1579806790,54,-28.57,-70.76,74.984,13.69044
Pangkalanbuun,97,ID,1579806515,97,-2.68,111.62,75.86600000000001,2.97521
Eldoret,75,KE,1579806791,93,0.52,35.27,60.8,2.237
Puerto Madryn,47,AR,1579806512,10,-42.77,-65.04,91.45400000000006,7.807130000000001
Saint Peters,90,US,1579806791,93,38.8,-90.63,35.99600000000005,8.097940000000001
Vila do Maio,0,CV,1579806792,64,15.13,-23.22,75.2,16.1064
Egvekinot,37,RU,1579806792,92,66.32,-179.17,-19.47999999999994,0.91717
Datong,27,CN,1579806792,78,40.09,113.29,13.406000000000027,1.76723
Saldanha,0,ZA,1579806548,39,-33.01,17.94,80.6,11.4087
Zhezkazgan,90,KZ,1579806793,92,47.8,67.71,28.4,24.607
Chingirlau,100,KZ,1579806793,96,51.09,54.08,26.114000000000033,8.63482
Rabo de Peixe,40,PT,1579806793,67,37.8,-25.58,57.2,5.8162
Yarim,2,YE,1579806794,78,14.3,44.38,54.33800000000005,3.73579
Tatarsk,100,RU,1579806794,94,55.22,75.98,30.11000000000008,20.02115
Port Macquarie,90,AU,1579806794,100,-31.43,152.92,75.99199999999999,9.52962
Marrakesh,75,MA,1579806750,62,31.63,-8.01,57.2,5.8162
Arrifes,40,PT,1579806795,67,37.77,-25.7,57.2,5.8162
Neryungri,96,RU,1579806795,94,56.67,124.65,-27.543999999999976,2.84099
Zheleznodorozhnyy,65,RU,1579806795,67,55.75,38.0,23.0,11.185
Pokrovsk,84,UA,1579806796,72,48.28,37.18,26.47400000000001,10.111239999999999
Phek,0,IN,1579806796,65,25.67,94.5,35.87000000000006,1.87908
Masvingo,98,ZW,1579806796,67,-20.06,30.83,68.21600000000001,4.83192
Mega,100,ET,1579806796,28,4.05,38.3,76.06400000000004,9.08222
Snezhnogorsk,97,RU,1579806797,83,69.19,33.25,-3.9999999999999503,7.51632
Leander,1,US,1579806795,67,30.58,-97.85,66.00200000000008,9.1717
Vidalia,90,US,1579806575,81,32.22,-82.41,51.998000000000026,11.4087
La Cruz,0,MX,1579806797,82,23.92,-106.9,71.00600000000003,2.99758
Laguna,90,US,1579806798,81,38.42,-121.42,57.00200000000008,2.79625
Khuzdar,97,PK,1579806798,64,27.74,66.64,48.92000000000006,4.093710000000001
Penzance,90,GB,1579806799,93,50.12,-5.54,48.00200000000008,13.8694
Kisangani,98,CD,1579806799,37,0.52,25.2,76.92800000000007,1.14087
Tarut,48,SA,1579806799,63,26.57,50.04,60.8,14.987900000000002
Willmar,90,US,1579806799,95,45.12,-95.04,35.6,8.0532
Souillac,75,MU,1579806800,88,-20.52,57.52,80.6,2.237
Kieta,70,PG,1579806800,76,-6.22,155.63,80.58200000000002,5.033250000000001
Lerwick,40,GB,1579806800,81,60.15,-1.15,46.4,25.278100000000002
Ulundi,69,ZA,1579806800,97,-28.34,31.42,64.88600000000008,5.41354
Hofn,100,IS,1579806801,57,64.25,-15.21,37.65200000000008,48.25209
Shelburne,90,CA,1579806801,59,44.08,-80.2,37.99400000000007,9.1717
Westport,1,US,1579806802,26,41.14,-73.36,44.99600000000005,4.6977
Alta Floresta,75,BR,1579806802,88,-9.88,-56.09,80.6,8.0532
Hambantota,5,LK,1579806736,100,6.12,81.12,77.0,8.0532
Acapulco de Juarez,40,MX,1579806803,70,16.86,-99.89,84.2,5.8162
Limbdi,77,IN,1579806803,37,22.57,71.8,66.56000000000009,9.32829
La Ronge,90,CA,1579806803,85,55.1,-105.28,15.8,5.8162
Nicoya,20,CR,1579806803,43,10.15,-85.45,91.4,9.1717
Camacari,90,BR,1579806804,78,-12.7,-38.32,80.6,13.8694
Nhulunbuy,40,AU,1579806804,83,-12.23,136.77,80.6,11.4087
Nizhniy Kuranakh,100,RU,1579806805,99,58.84,125.49,-24.78999999999997,1.09613
Carutapera,100,BR,1579806805,83,-1.2,-46.02,81.55400000000006,14.585239999999999
Tsiroanomandidy,76,MG,1579806805,91,-18.77,46.03,69.72800000000007,0.42503
Warora,35,IN,1579806805,48,20.23,79.0,73.56200000000007,6.30834
Ornes,40,NO,1579806806,75,66.87,13.71,37.99400000000007,31.0943
Buffalo,1,US,1579806792,32,42.89,-78.88,44.00600000000003,5.8162
Half Moon Bay,1,US,1579806806,76,37.46,-122.43,59.0,3.3555
Kautokeino,100,NO,1579806806,94,69.01,23.04,16.394000000000073,13.8694
Ixtapa,90,MX,1579806561,65,20.7,-105.2,80.00600000000003,2.61729
Bogorodskoye,50,RU,1579806807,78,56.55,37.88,17.47400000000001,8.187420000000001
Kuito,26,AO,1579806807,84,-12.38,16.93,64.292,1.2527200000000003
Tura,0,IN,1579806807,57,25.52,90.22,54.5,1.83434
Vryburg,78,ZA,1579806570,24,-26.96,24.73,77.52200000000005,3.71342
Arrondissement de Rennes,100,FR,1579806808,75,48.17,-1.67,39.992,5.8162
Heihe,15,CN,1579806808,49,50.24,127.49,-2.199999999999953,8.948
Lakatoro,40,VU,1579806756,94,-16.1,167.42,71.6,2.237
Merauke,68,ID,1579806809,91,-8.47,140.33,78.60200000000009,2.41596
Batemans Bay,68,AU,1579806809,78,-35.72,150.18,64.99400000000009,4.004230000000001
Krasnyy Chikoy,68,RU,1579806809,95,50.36,108.75,-10.839999999999968,1.40931
Makaha,1,US,1579806810,93,21.47,-158.22,73.99400000000009,2.5054400000000006
Kiryat Gat,20,IL,1579806810,76,31.61,34.76,55.400000000000006,9.1717
AEaenekoski,90,FI,1579806810,93,62.6,25.73,32.0,9.1717
Kiunga,94,PG,1579806810,98,-6.12,141.29,74.40800000000002,1.49879
Manaure,20,CO,1579806665,70,11.78,-72.44,84.2,6.9347
Gizo,55,SB,1579806811,82,-8.1,156.84,76.87400000000002,5.41354
Preston,90,GB,1579806811,100,53.77,-2.72,46.004000000000055,6.9347
Yerbogachen,100,RU,1579806811,95,61.28,108.01,-8.067999999999984,6.75574
Rayong,20,TH,1579806812,74,12.83,101.43,87.99800000000002,10.2902
Vaitape,52,PF,1579806812,78,-16.52,-151.75,81.82400000000001,11.87847
Hirara,34,JP,1579806813,70,24.8,125.28,72.14000000000001,4.76481
Lavrentiya,0,RU,1579806741,81,65.58,-171.0,-16.32999999999994,0.85006
Altus,90,US,1579806813,50,34.64,-99.33,51.8,10.2902
Pangody,100,RU,1579806814,93,65.85,74.49,10.04000000000002,13.287780000000001
Bukachacha,0,RU,1579806814,86,52.98,116.92,-18.885999999999967,2.37122
Hanstholm,94,DK,1579806814,92,57.12,8.62,44.00600000000003,14.00362
Nuqui,40,CO,1579806814,66,5.71,-77.27,87.80000000000001,9.1717
Hays,1,US,1579806766,63,30.05,-98.03,69.00800000000001,9.1717
Yar-Sale,100,RU,1579806647,95,66.83,70.83,11.17400000000001,10.35731
Constitucion,36,CL,1579806815,70,-35.33,-72.42,66.57800000000006,8.29927
Naze,40,JP,1579806731,100,28.37,129.48,66.2,5.8162
Mani,20,CO,1579806816,33,4.82,-72.29,96.20600000000003,8.63482
Tommot,98,RU,1579806816,99,58.96,126.29,-28.713999999999984,0.42503
Ambilobe,100,MG,1579806576,82,-13.2,49.05,76.49600000000005,14.518130000000001
Locri,5,IT,1579806816,87,38.24,16.26,55.99400000000007,2.237
Zhuhai,40,CN,1579806670,100,22.28,113.57,71.99600000000005,2.237
Santa Maria,75,BR,1579806174,58,-29.68,-53.81,82.4,17.2249
Nisia Floresta,75,BR,1579806818,70,-6.09,-35.21,87.80000000000001,13.8694
Paracuru,75,BR,1579806818,66,-3.41,-39.03,87.80000000000001,14.987900000000002
Umea,100,SE,1579806818,93,63.83,20.26,35.99600000000005,11.4087
Pascagoula,90,US,1579806818,87,30.37,-88.56,57.2,18.3434
Talavera,75,PH,1579806819,69,15.62,120.93,75.2,2.237
Codrington,85,AU,1579806819,68,-38.27,141.97,60.728000000000065,28.05198
Skelleftea,90,SE,1579806671,85,64.75,20.95,33.8,6.9347
Palmer,1,US,1579806819,24,42.16,-72.33,44.99600000000005,5.8162
Bontang,0,ID,1579806820,78,0.13,117.5,79.808,13.06408
Mecca,0,SA,1579806676,37,21.43,39.83,60.20600000000003,6.77811
Shenjiamen,92,CN,1579806821,87,29.96,122.3,51.98000000000005,14.070730000000001
San Vicente,85,AR,1579806821,85,-26.62,-54.13,78.99800000000002,5.5925
Port Lincoln,9,AU,1579806605,72,-34.73,135.87,58.02800000000006,10.55864
Kharar,12,IN,1579806724,69,30.74,76.65,46.23800000000004,10.2902
Swan River,97,CA,1579806791,89,52.11,-101.27,15.83600000000007,1.63301
Marzuq,0,YE,1579806822,78,14.4,46.47,60.58399999999999,5.61487
Chicama,90,PE,1579806822,78,-7.84,-79.15,77.0,6.9347
Mendoza,6,AR,1579806807,22,-32.89,-68.83,100.4,12.750900000000001
Chukhloma,100,RU,1579806823,88,58.75,42.68,17.81600000000001,8.81378
Matelandia,90,BR,1579806823,94,-25.24,-54.0,77.0,10.2902
Baykit,95,RU,1579806795,99,61.67,96.37,-11.70399999999995,2.41596
Pacasmayo,52,PE,1579806824,72,-7.4,-79.57,76.892,8.65719
Kui Buri,98,TH,1579806824,83,12.08,99.85,78.9260000000001,10.223090000000001
Nishihara,1,JP,1579806824,93,26.18,127.76,68.0,4.6977
Arkhangelsk,75,RU,1579806824,85,64.54,40.54,24.8,2.237
Ulladulla,90,AU,1579806825,78,-35.35,150.47,71.6,5.8162
Masterton,30,NZ,1579806825,91,-40.96,175.66,66.99199999999999,0.98428
Santa Barbara,1,US,1579806724,77,34.42,-119.7,71.6,6.9347
Honningsvag,75,NO,1579806825,79,70.98,25.97,23.0,25.278100000000002
Bambous Virieux,75,MU,1579806733,88,-20.34,57.76,80.6,2.237
The Valley,20,AI,1579806826,100,18.22,-63.06,80.00600000000003,3.3555
Fuerte Olimpo,98,PY,1579806826,68,-21.04,-57.87,81.46400000000003,9.57436
Hasaki,40,JP,1579806827,100,35.73,140.83,44.6,8.0532
Abu Samrah,53,SY,1579806827,86,35.3,37.18,47.858000000000004,17.58282
Kaeo,0,NZ,1579806754,100,-35.1,173.78,66.99199999999999,6.330710000000001
Anadyr,20,RU,1579806827,75,64.75,177.48,-14.007999999999953,11.185
Urucara,91,BR,1579806828,41,-2.54,-57.76,94.4600000000001,4.6977
Tyret' Pervaya,72,RU,1579806828,92,53.67,102.31,-2.0739999999999625,4.45163
Aswan,0,EG,1579806799,30,24.09,32.91,57.2,4.6977
Emerald,98,AU,1579806615,83,-23.53,148.17,78.80000000000001,6.9347
Morag,14,PL,1579806829,84,53.92,19.93,35.99600000000005,5.99516
Iquitos,75,PE,1579806830,100,-3.75,-73.25,42.8,10.2902
Jackson,90,US,1579806830,87,42.42,-122.83,48.00200000000008,4.6977
Busayra,0,JO,1579806831,70,30.74,35.61,41.378000000000064,10.7376
Colares,75,PT,1579806831,81,38.8,-9.45,53.00600000000003,5.8162
Exeter,92,GB,1579806831,93,50.72,-3.53,44.00600000000003,12.392980000000001
Sampit,98,ID,1579806832,94,-2.53,112.95,76.24400000000009,1.8119700000000003
Muscat,0,OM,1579806811,39,23.61,58.59,78.80000000000001,2.237
Narathiwat,20,TH,1579806832,83,6.33,101.75,78.80000000000001,3.3555
Petrolina de Goias,75,BR,1579806832,94,-16.09,-49.34,73.4,5.8162
Flagstaff,1,US,1579806833,48,35.2,-111.65,55.99400000000007,10.2902
Pombas,12,CV,1579806833,72,17.15,-25.02,69.89000000000001,12.05743
Joshimath,0,IN,1579806833,36,30.57,79.57,20.390000000000022,12.70616
Celestun,0,MX,1579806833,60,20.87,-90.4,72.82400000000001,1.7896
Mpulungu,99,ZM,1579806834,94,-8.76,31.11,64.74199999999999,1.61064
Vestmannaeyjar,100,IS,1579806834,66,63.44,-20.27,34.66400000000003,43.01751
Kysyl-Syr,57,RU,1579806834,98,63.9,122.76,-45.23799999999994,2.84099
Imbituba,75,BR,1579806834,100,-28.24,-48.67,69.80000000000001,10.2902
Ilo,40,PE,1579806835,74,-17.64,-71.34,80.6,9.1717
Barcelona,40,ES,1579806433,87,41.39,2.16,53.00600000000003,3.3555
Sabang,78,ID,1579806835,79,5.89,95.32,82.23800000000006,12.23639
Ambon,86,ID,1579806751,79,-3.7,128.18,80.47400000000002,8.59008
Shiraz,0,IR,1579806659,80,29.6,52.54,33.8,4.6977
Rechka-Vydrino,3,RU,1579806836,66,51.48,104.85,10.49000000000002,2.66203
Petropavlovsk-Kamchatsky,0,RU,1579806764,70,53.05,158.65,-5.799999999999947,11.185
Gilbues,100,BR,1579806837,96,-9.83,-45.34,70.61000000000008,3.31076
Lake Havasu City,1,US,1579806625,42,34.48,-114.32,66.00200000000008,9.1717
Pisco,75,PE,1579806591,30,-13.7,-76.22,80.00600000000003,9.1717
Kamina,100,CD,1579806838,97,-8.74,24.99,68.18000000000004,4.0266
Rotenburg,20,DE,1579806838,93,53.12,9.4,42.8,1.1185
Mendi,100,PG,1579806838,97,-6.18,143.65,54.03200000000002,2.08041
Oranjemund,0,NA,1579806838,74,-28.55,16.43,67.91000000000008,6.80048
Manoel Urbano,92,BR,1579806839,48,-8.84,-69.26,92.80400000000006,1.96856
Moses Lake,90,US,1579806822,93,47.13,-119.28,42.008,1.45405
Chumikan,100,RU,1579806789,94,54.72,135.31,-8.049999999999947,2.99758
Alofi,45,NU,1579806612,94,-19.06,-169.92,75.2,6.9347
Asau,0,RO,1579806840,68,46.43,26.4,30.2,5.8162
Bandarbeyla,66,SO,1579806791,82,9.49,50.81,78.38600000000008,18.231550000000002
Te Anau,11,NZ,1579806806,73,-45.42,167.72,52.10600000000003,4.42926
Suifenhe,0,CN,1579806840,65,44.4,131.17,1.9940000000000744,15.815590000000002
Ust-Nera,96,RU,1579806841,100,64.57,143.2,-36.41799999999999,0.69347
Kapoeta,100,SS,1579806841,18,4.77,33.59,85.334,5.95042
Kirishi,75,RU,1579806841,68,59.45,32.02,28.97600000000009,5.97279
Wodonga,0,AU,1579806841,62,-36.12,146.88,57.2,3.3555
Shingu,41,JP,1579806842,83,33.73,135.98,56.696000000000055,5.63724
San Julian,100,MX,1579806842,48,21.02,-102.17,63.96800000000009,6.01753
Qasigiannguit,40,GL,1579806842,60,68.82,-51.19,8.599999999999998,20.804100000000002
Sobolevo,42,RU,1579806843,60,54.43,31.9,27.338000000000044,9.99939
Ilabaya,100,PE,1579806843,76,-17.42,-70.51,65.984,9.93228
Andilamena,99,MG,1579806843,95,-17.02,48.58,66.99199999999999,1.63301
Nar'yan-Mar,100,RU,1579806843,93,67.67,53.09,6.548000000000023,13.623330000000001
Ipixuna,75,BR,1579806844,88,-1.76,-48.8,78.80000000000001,6.9347
Adrar,100,MR,1579806844,14,20.5,-10.07,78.33200000000002,7.00181
Bereket,78,TM,1579806844,68,39.24,55.52,39.70400000000005,4.98851
Ordu,75,TR,1579806844,75,40.91,37.68,41.0,12.750900000000001
Jinka,83,ET,1579806845,31,5.65,36.65,76.69400000000007,3.37787
Stornoway,75,GB,1579806710,93,58.21,-6.39,44.99600000000005,10.2902
Tubuala,40,PA,1579806845,66,9.52,-79.03,84.2,4.6977
Bolshaya Martynovka,97,RU,1579806846,82,47.27,41.67,28.85,9.35066
Great Yarmouth,75,GB,1579806799,93,52.61,1.73,44.99600000000005,2.237
Tevaitoa,59,PF,1579806846,74,-16.78,-151.5,82.058,10.35731
Laas,0,IT,1579806846,59,46.62,10.7,35.6,2.237
Koslan,100,RU,1579806847,92,63.46,48.9,13.82000000000006,10.71523
Coahuayana Viejo,40,MX,1579806815,73,18.73,-103.68,73.4,5.055619999999999
Barra Patuca,93,HN,1579806847,67,15.8,-84.28,75.68600000000006,7.493950000000001
Puerto Escondido,40,MX,1579806848,83,15.85,-97.07,84.2,6.9347
Moose Factory,90,CA,1579806848,72,51.26,-80.61,14.0,4.6977
Gorontalo,65,ID,1579806795,91,0.54,123.06,73.27400000000002,3.3555
Twentynine Palms,20,US,1579806566,50,34.14,-116.05,71.6,8.097940000000001
Bolotnoye,100,RU,1579806849,87,55.67,84.4,26.40200000000008,21.22913
Praia da Vitoria,75,PT,1579806849,82,38.73,-27.07,57.2,11.67714
Bereda,20,ES,1579806849,81,43.27,-7.54,51.00800000000001,4.6977
Waingapu,6,ID,1579806850,75,-9.66,120.26,83.084,8.948
Pacifica,75,US,1579806850,76,37.61,-122.49,57.992,4.6977
Agropoli,0,IT,1579806850,93,40.35,15.0,51.998000000000026,4.6977
Quatre Cocos,75,MU,1579806577,83,-20.21,57.76,82.4,3.3555
Novobirilyussy,100,RU,1579806851,92,56.95,90.67,21.038000000000046,10.424420000000001
Distrikt Brokopondo,0,SR,1579806851,48,4.75,-55.17,85.08200000000002,7.11366
Luanda,20,AO,1579806639,74,-8.84,13.23,84.2,9.1717
Nova Olinda do Norte,97,BR,1579806664,49,-3.89,-59.09,93.25400000000005,4.60822
Limbang,75,MY,1579806852,88,4.75,115.0,80.6,2.237
